type, name, country, latitude, longitude, elevation, population
seaport, CONVENT, US, 30.016667, -90.833333, , 
seaport, DEER PARK, US, 29.75, -95.333333, , 
seaport, PORTO DE SUAPE, BR, -8.4, -34.966667, , 
seaport, AIN SUKHNA TERMINAL, EG, 29.583333, 32.366667, , 
seaport, KING FAHD PORT, SA, 23.95, 38.216667, , 
seaport, RAS ISA MARINE TERMINAL, YE, 15.133333, 42.6, , 
seaport, SHEKOU, CN, 22.466667, 113.866667, , 
seaport, ARDJUNA OIL FIELD, ID, -5.883333, 107.716667, , 
seaport, BAYUQUAN, CN, 40.3, 122.083333, , 
seaport, PIPAVAV BANDAR, IN, 20.916667, 71.516667, , 
seaport, SUBIC BAY, PH, 14.8, 120.266667, , 
seaport, YANTIAN, CN, 22.583333, 114.266667, , 
seaport, ST. JAMES, US, 29.983333, -90.933333, , 
seaport, PETROPAVLOVSK, RU, 53.05, 158.65, , 
seaport, NIKOL SKOYE, RU, 55.2, 165.983333, , 
seaport, PROVIDENIYA, RU, 64.416667, -173.233333, , 
seaport, AMBARCHIK, RU, 69.633333, 162.316667, , 
seaport, TIKSI, RU, 71.633333, 128.866667, , 
seaport, PEVEK, RU, 69.716667, 170.3, , 
seaport, PORT DIKSON, RU, 73.5, 80.516667, , 
seaport, UST-PORT, RU, 69.666667, 84.433333, , 
seaport, DUDINKA, RU, 69.4, 86.166667, , 
seaport, IGARKA, RU, 67.483333, 86.6, , 
seaport, MYS NOVYY PORT, RU, 67.666667, 72.9, , 
seaport, NAR YAN-MAR, RU, 67.65, 53.0, , 
seaport, MEZEN, RU, 65.833333, 44.183333, , 
seaport, ARKHANGELS'K, RU, 64.533333, 40.533333, , 
seaport, SEVERODVINSK, RU, 64.566667, 39.783333, , 
seaport, ONEGA, RU, 63.9, 38.1, , 
seaport, BELOMORSK, RU, 64.533333, 34.8, , 
seaport, RABOCHEOSTROVSK, RU, 64.983333, 34.783333, , 
seaport, KERET, RU, 66.283333, 33.566667, , 
seaport, KOVDA, RU, 66.683333, 32.866667, , 
seaport, KANDALAKSHA, RU, 67.133333, 32.416667, , 
seaport, BOLSHAYA PIRYU GUBA, RU, 66.666667, 34.366667, , 
seaport, OSTROVNOY GREMIKHA, RU, 68.05, 39.516667, , 
seaport, MURMANSK, RU, 68.983333, 33.05, , 
seaport, MYS ABRAM, RU, 68.983333, 33.033333, , 
seaport, ELLEFSEN HARBOR, AQ, -60.733333, -45.033333, , 
seaport, SCOTIA BAY, AQ, -60.75, -44.716667, , 
seaport, ADMIRALTY BAY, AQ, -62.083333, -58.416667, , 
seaport, PORT FOSTER, AQ, -62.95, -60.633333, , 
seaport, PORT LOCKROY, AQ, -64.816667, -63.5, , 
seaport, MELCHIOR HARBOR, AQ, -64.316667, -63.0, , 
seaport, ANDERSEN HARBOR, AQ, -64.316667, -62.933333, , 
seaport, BUKHTA NAGAYEVA (MAGADAN), RU, 59.566667, 150.716667, , 
seaport, SOUTHWEST PASS, US, 28.45, -90.7, , 
seaport, TRI-CITY PORT, US, 38.716667, -90.2, , 
seaport, MOJI KO, JP, 33.95, 130.966667, , 
seaport, KANDA, JP, 33.783333, 131.016667, , 
seaport, OITA KO, JP, 33.25, 131.666667, , 
seaport, SAGANOSEKI KO, JP, 33.25, 131.866667, , 
seaport, TSUKUMI, JP, 33.083333, 131.866667, , 
seaport, SAIKI KO, JP, 32.966667, 131.933333, , 
seaport, HOSOSHIMA KO, JP, 32.433333, 131.666667, , 
seaport, KAGOSHIMA, JP, 31.583333, 130.566667, , 
seaport, SHIBUSHI WAN, JP, 31.466667, 131.1, , 
seaport, KIIRE, JP, 31.383333, 130.55, , 
seaport, MINAMATA KO, JP, 32.2, 130.383333, , 
seaport, YATSUSHIRO, JP, 32.5, 130.533333, , 
seaport, MISUMI KO, JP, 32.6, 130.466667, , 
seaport, MIIKE, JP, 33.0, 130.416667, , 
seaport, NAGASAKI, JP, 32.75, 129.883333, , 
seaport, SASEBO, JP, 33.166667, 129.716667, , 
seaport, IMARI, JP, 33.283333, 129.883333, , 
seaport, KARATSU, JP, 33.45, 129.966667, , 
seaport, HAKATA, JP, 33.6, 130.4, , 
seaport, IZUHARA, JP, 34.2, 129.3, , 
seaport, KIN WAN, JP, 26.366667, 127.966667, , 
seaport, NAHA KO, JP, 26.216667, 127.683333, , 
seaport, HIRARA KO, JP, 24.8, 125.283333, , 
seaport, ISHIGAKI, JP, 24.333333, 124.166667, , 
seaport, OKHOTSK IY REYD, RU, 59.366667, 143.2, , 
seaport, WAKAMATSU, JP, 33.9, 130.816667, , 
seaport, HAGI KO, JP, 34.416667, 131.416667, , 
seaport, HAMADA, JP, 34.9, 132.083333, , 
seaport, SAKAI KO, JP, 35.55, 133.25, , 
seaport, MIYAZU, JP, 35.533333, 135.2, , 
seaport, MAIZURU KO, JP, 35.516667, 135.333333, , 
seaport, KANAZAWA, JP, 36.616667, 136.6, , 
seaport, NANAO, JP, 37.05, 136.966667, , 
seaport, NIIGATA KO, JP, 37.916667, 139.05, , 
seaport, RYOTU KO, JP, 38.083333, 138.566667, , 
seaport, SAKATA KO, JP, 38.933333, 139.816667, , 
seaport, AKITA-FUNAKAWA KO, JP, 39.833333, 140.0, , 
seaport, HANNAN KO, JP, 34.466667, 135.35, , 
seaport, TAKAMATSU, JP, 34.333333, 134.05, , 
seaport, KOMATSUSHIMA, JP, 34.016667, 134.6, , 
seaport, TACHIBANA, JP, 33.866667, 134.666667, , 
seaport, KOCHI KO, JP, 33.5, 133.566667, , 
seaport, SUSAKI KO, JP, 33.383333, 133.3, , 
seaport, UWAJIMA, JP, 33.216667, 132.566667, , 
seaport, YAWATAHAMA, JP, 33.45, 132.416667, , 
seaport, MATSUYAMA, JP, 33.866667, 132.7, , 
seaport, KIKUMA, JP, 34.033333, 132.833333, , 
seaport, MUTUREZIMA KO, JP, 33.966667, 130.866667, , 
seaport, IMABARI, JP, 34.066667, 133.0, , 
seaport, NIIHAMA, JP, 33.966667, 133.266667, , 
seaport, MISHIMA-KAWANOE KO, JP, 34.0, 133.55, , 
seaport, MARUGAME, JP, 34.283333, 133.8, , 
seaport, UBE, JP, 33.933333, 131.233333, , 
seaport, URAGA KO, JP, 35.233333, 139.716667, , 
seaport, TAGONOURA, JP, 35.133333, 138.7, , 
seaport, SHIMODA KO, JP, 34.666667, 138.95, , 
seaport, OMAEZAKI KO, JP, 34.6, 138.233333, , 
seaport, SIMIZU KO, JP, 35.016667, 138.5, , 
seaport, KINUURA KO, JP, 34.85, 136.95, , 
seaport, GAMAGORI KO, JP, 34.816667, 137.216667, , 
seaport, NAGOYA KO, JP, 35.066667, 136.866667, , 
seaport, YOKKAICHI, JP, 34.966667, 136.633333, , 
seaport, MATSUSAKA, JP, 34.6, 136.566667, , 
seaport, TOBA, JP, 34.483333, 136.85, , 
seaport, OWASE, JP, 34.066667, 136.216667, , 
seaport, TANABE KO, JP, 33.716667, 135.366667, , 
seaport, KAINAN, JP, 34.15, 135.2, , 
seaport, WAKAYAMA KU, JP, 34.233333, 135.133333, , 
seaport, SAKAI-SENBOKU, JP, 34.55, 135.433333, , 
seaport, AMAGASAKI, JP, 34.7, 135.383333, , 
seaport, KOBE, JP, 34.65, 135.183333, , 
seaport, HIMEJI, JP, 34.766667, 134.683333, , 
seaport, AIOI, JP, 34.783333, 134.466667, , 
seaport, KAKOGAWA, JP, 34.7, 134.833333, , 
seaport, UNO, JP, 34.483333, 133.95, , 
seaport, HIBI KO, JP, 34.45, 133.933333, , 
seaport, MIZUSHIMA KO, JP, 34.5, 133.733333, , 
seaport, ONOMICHI-ITOZAKI, JP, 34.383333, 133.133333, , 
seaport, KURE, JP, 34.233333, 132.55, , 
seaport, KANOKAWA KO, JP, 34.183333, 132.433333, , 
seaport, IWAKUNI KO, JP, 34.183333, 132.25, , 
seaport, KUDAMATSU, JP, 34.0, 131.866667, , 
seaport, TOKUYAMA, JP, 34.033333, 131.816667, , 
seaport, YOKOSUKA KO, JP, 35.283333, 139.666667, , 
seaport, ALEKSANDROVSK -SAKHALINSKIY, RU, 50.9, 142.133333, , 
seaport, LAZAREV, RU, 52.216667, 141.516667, , 
seaport, MOSKAL VO, RU, 53.583333, 142.5, , 
seaport, SHAKOTAN, RU, 43.866667, 146.833333, , 
seaport, MOMBETU KO, JP, 44.35, 143.35, , 
seaport, ABASHIRI-KO, JP, 44.016667, 144.283333, , 
seaport, NEMURO KO, JP, 43.333333, 145.583333, , 
seaport, HANASAKI KO, JP, 43.283333, 145.583333, , 
seaport, KUSHIRO KO, JP, 42.983333, 144.366667, , 
seaport, TOMAKOMAI KO, JP, 42.633333, 141.633333, , 
seaport, MURORAN KO, JP, 42.35, 140.966667, , 
seaport, MORI, JP, 42.116667, 140.583333, , 
seaport, HAKODATE, JP, 41.783333, 140.716667, , 
seaport, ESASI KO, JP, 41.866667, 140.116667, , 
seaport, OTARU, JP, 43.2, 141.016667, , 
seaport, RUMOI, JP, 43.95, 141.633333, , 
seaport, WAKKANAI, JP, 43.416667, 141.683333, , 
seaport, AOMORI, JP, 40.833333, 140.75, , 
seaport, HACHINOHE KO, JP, 40.533333, 141.55, , 
seaport, MIYAKO, JP, 39.633333, 141.983333, , 
seaport, KAMAISHI KO, JP, 39.266667, 141.9, , 
seaport, OFUNATO, JP, 39.05, 141.733333, , 
seaport, KESENNUMA KO, JP, 38.866667, 141.6, , 
seaport, ONAGAWA, JP, 38.45, 141.45, , 
seaport, ISHINOMAKI KO, JP, 38.4, 141.316667, , 
seaport, SENDAI-SHIOGAMA, JP, 38.316667, 141.033333, , 
seaport, ONAHAMA KO, JP, 36.933333, 140.9, , 
seaport, HITACHI, JP, 36.5, 140.633333, , 
seaport, KASHIMA KO, JP, 35.933333, 140.7, , 
seaport, CHOSHI, JP, 35.733333, 140.85, , 
seaport, TATEYAMA KO, JP, 35.0, 139.8, , 
seaport, KISARAZU KO, JP, 35.366667, 139.883333, , 
seaport, CHIBA KO, JP, 35.583333, 140.066667, , 
seaport, KATSUNAN KO, JP, 35.666667, 139.983333, , 
seaport, KAWASAKI KO, JP, 35.5, 139.766667, , 
seaport, YOKOHAMA KO, JP, 35.466667, 139.683333, , 
seaport, MYS ROGATYY OKTYABRSKIY, RU, 50.733333, 142.1, , 
seaport, POHANG, KR, 36.05, 129.383333, , 
seaport, MUKHO, KR, 37.566667, 129.116667, , 
seaport, SOKCH'O HANG, KR, 38.2, 128.6, , 
seaport, WONSAN, KP, 39.166667, 127.45, , 
seaport, HUNGNAM, KP, 39.833333, 127.616667, , 
seaport, CH'AHO, KP, 40.2, 128.65, , 
seaport, CH'ONGJIN, KP, 41.766667, 129.816667, , 
seaport, POS'YET, RU, 42.65, 130.8, , 
seaport, VLADIVOSTOK, RU, 43.116667, 131.9, , 
seaport, BUKHTA GAYDAMAK, RU, 42.866667, 132.683333, , 
seaport, NAKHODKA, RU, 42.8, 132.883333, , 
seaport, SOVETSKAYA GAVAN, RU, 48.966667, 140.283333, , 
seaport, BUKHTA VANINO, RU, 49.083333, 140.283333, , 
seaport, DE KASTRI, RU, 51.466667, 140.783333, , 
seaport, NIKOLAYEVSK NA AMUR, RU, 53.133333, 140.733333, , 
seaport, OKHA, RU, 53.55, 143.0, , 
seaport, PORONAYSK, RU, 49.216667, 143.133333, , 
seaport, KORSAKOV, RU, 46.616667, 142.766667, , 
seaport, NEVELSK, RU, 46.666667, 141.866667, , 
seaport, KHOLMSK, RU, 47.05, 142.05, , 
seaport, UGLEGORSK, RU, 49.083333, 142.033333, , 
seaport, LESOGORSK, RU, 49.45, 142.133333, , 
seaport, MASAN, KR, 35.183333, 128.566667, , 
seaport, PUSAN, KR, 35.1, 129.033333, , 
seaport, ULSAN, KR, 35.45, 129.4, , 
seaport, WENZHOU, CN, 28.016667, 120.65, , 
seaport, ZHEN HAI, CN, 29.95, 121.7, , 
seaport, ZHOUSHAN, CN, 30.0, 122.1, , 
seaport, JIANGYIN, CN, 31.916667, 120.233333, , 
seaport, GAOGANG, CN, 32.283333, 119.85, , 
seaport, YANGZHOU, CN, 32.266667, 119.433333, , 
seaport, ZHENJIANG, CN, 32.216667, 119.433333, , 
seaport, NANJING, CN, 32.083333, 118.75, , 
seaport, WU HU, CN, 31.333333, 118.366667, , 
seaport, ANKINGCHENG, CN, 30.516667, 117.033333, , 
seaport, HANKOW, CN, 30.583333, 114.283333, , 
seaport, WANXIAN, CN, 30.816667, 108.433333, , 
seaport, CHUNG CHING, CN, 29.566667, 106.633333, , 
seaport, LIANYUNGANG, CN, 34.733333, 119.45, , 
seaport, QINGDAO GANG, CN, 36.033333, 120.266667, , 
seaport, WEIHAI, CN, 37.5, 122.1, , 
seaport, YANTAI, CN, 37.55, 121.45, , 
seaport, LONGKOU GANG, CN, 37.633333, 120.283333, , 
seaport, DAGU TANGGU, CN, 38.966667, 117.666667, , 
seaport, TIANJIN XIN GANG, CN, 38.966667, 117.833333, , 
seaport, HULUDAO GANG, CN, 40.7, 120.983333, , 
seaport, YINGKOU, CN, 40.683333, 122.233333, , 
seaport, LUSHUN, CN, 38.783333, 121.25, , 
seaport, DALIAN, CN, 38.916667, 121.666667, , 
seaport, NAMPO, KP, 38.716667, 125.4, , 
seaport, KYOMIP'O, KP, 38.733333, 125.616667, , 
seaport, HAEJU HANG, KP, 38.0, 125.7, , 
seaport, INCHON, KR, 37.466667, 126.616667, , 
seaport, KUNSAN, KR, 35.983333, 126.616667, , 
seaport, MOKPO, KR, 34.783333, 126.383333, , 
seaport, CHEJU HANG, KR, 33.516667, 126.533333, , 
seaport, YOSU, KR, 34.733333, 127.75, , 
seaport, SURIGAO CITY, PH, 9.783333, 125.5, , 
seaport, NASIPIT PORT, PH, 8.983333, 125.333333, , 
seaport, HINATUAN, PH, 8.366667, 126.333333, , 
seaport, MANGAGOY, PH, 8.233333, 126.316667, , 
seaport, MATI, PH, 6.95, 126.216667, , 
seaport, DAVAO, PH, 7.066667, 125.616667, , 
seaport, GENERAL SANTOS, PH, 6.116667, 125.183333, , 
seaport, POLLOC (COTABATO), PH, 7.35, 124.216667, , 
seaport, PAGADIAN, PH, 7.833333, 123.433333, , 
seaport, MARGOSATUBIG, PH, 7.583333, 123.166667, , 
seaport, SANTA CLARA, PH, 7.783333, 122.683333, , 
seaport, ZAMBOANGA, PH, 6.9, 122.066667, , 
seaport, JIMENEZ, PH, 8.333333, 123.866667, , 
seaport, PORT OZAMIS, PH, 8.133333, 123.85, , 
seaport, ILIGAN, PH, 8.233333, 124.233333, , 
seaport, CAGAYAN DE ORO, PH, 8.5, 124.666667, , 
seaport, BUGO, PH, 8.516667, 124.75, , 
seaport, VILLANUEVA, PH, 8.583333, 124.766667, , 
seaport, BUTUAN CITY, PH, 8.95, 125.533333, , 
seaport, BASILIAN CITY (ISABELA), PH, 6.716667, 121.966667, , 
seaport, PORT HOLLAND, PH, 6.55, 121.866667, , 
seaport, JOLO, PH, 6.05, 121.0, , 
seaport, SIASI, PH, 5.55, 120.816667, , 
seaport, FUZHOU, CN, 26.083333, 119.3, , 
seaport, ORMOC, PH, 11.0, 124.6, , 
seaport, PALOMPON, PH, 11.05, 124.383333, , 
seaport, TAGBILARAN, PH, 9.65, 123.85, , 
seaport, TUBIGAN, PH, 9.95, 123.966667, , 
seaport, CEBU, PH, 10.3, 123.9, , 
seaport, TOLEDO, PH, 10.366667, 123.633333, , 
seaport, SAN CARLOS, PH, 10.483333, 123.416667, , 
seaport, BAIS, PH, 9.6, 123.116667, , 
seaport, DUMAGUETE, PH, 9.316667, 123.3, , 
seaport, LAZI, PH, 9.133333, 123.633333, , 
seaport, PULUPANDAN, PH, 10.516667, 122.8, , 
seaport, PORT CAPIZ, PH, 11.6, 122.716667, , 
seaport, JORDAN, PH, 10.666667, 122.583333, , 
seaport, ILOILO, PH, 10.7, 122.583333, , 
seaport, PUERTO PRINCESA, PH, 9.733333, 118.733333, , 
seaport, MAASIN, PH, 10.133333, 124.833333, , 
seaport, BAYBAY, PH, 10.683333, 124.8, , 
seaport, SORSOGON, PH, 12.966667, 124.0, , 
seaport, SANTA CRUZ (MARINDUQUE ISL), PH, 13.5, 122.066667, , 
seaport, BATANGAS CITY, PH, 13.75, 121.05, , 
seaport, NASUGBU, PH, 14.083333, 120.616667, , 
seaport, MANILA, PH, 14.583333, 120.966667, , 
seaport, MARIVELES, PH, 14.433333, 120.483333, , 
seaport, MASINLOC, PH, 15.55, 119.95, , 
seaport, SAN FERNANDO HARBOR, PH, 16.616667, 120.316667, , 
seaport, CALAPAN, PH, 13.416667, 121.183333, , 
seaport, PORT ROMBLON, PH, 12.583333, 122.266667, , 
seaport, MASBATE, PH, 12.366667, 123.616667, , 
seaport, LAOANG, PH, 12.566667, 125.016667, , 
seaport, PORT BORONGAN, PH, 11.6, 125.433333, , 
seaport, GUIUAN, PH, 11.033333, 125.716667, , 
seaport, CATBALOGAN, PH, 11.766667, 124.883333, , 
seaport, TACLOBAN, PH, 11.25, 125.0, , 
seaport, FANG-CHENG, CN, 21.75, 108.35, , 
seaport, BEIHAI, CN, 21.483333, 109.066667, , 
seaport, HAIKOU, CN, 20.05, 110.283333, , 
seaport, BASUO, CN, 19.1, 108.616667, , 
seaport, ZHANJIANG, CN, 21.2, 110.4, , 
seaport, LON SHUI TERMINAL, CN, 20.833333, 115.683333, , 
seaport, MACAU, MO, 22.183333, 113.566667, , 
seaport, HUANGPUXINGANG, CN, 23.05, 113.5, , 
seaport, GUANGZHOU, CN, 23.116667, 113.233333, , 
seaport, HONG KONG, HK, 22.266667, 114.2, , 
seaport, SHAN T OU, CN, 23.366667, 116.683333, , 
seaport, XIAMEN, CN, 24.45, 118.066667, , 
seaport, CHI-LUNG, TW, 25.133333, 121.766667, , 
seaport, SU-AO, TW, 24.6, 121.866667, , 
seaport, HUA-LIEN KANG, TW, 23.983333, 121.6, , 
seaport, KAO-HSIUNG, TW, 22.616667, 120.25, , 
seaport, TAN-SHUI, TW, 25.183333, 121.4, , 
seaport, PENG-HU KANG, TW, 23.583333, 119.533333, , 
seaport, TAI-CHUNG KANG, TW, 24.3, 120.5, , 
seaport, BASCO, PH, 20.45, 121.966667, , 
seaport, CLAVERIA, PH, 18.616667, 121.083333, , 
seaport, PORT SAN VICENTE, PH, 18.516667, 122.133333, , 
seaport, APARRI, PH, 18.366667, 121.633333, , 
seaport, HONDAGUA, PH, 13.95, 122.233333, , 
seaport, JOSE PANGANIBAN, PH, 14.283333, 122.683333, , 
seaport, VIRAC, PH, 13.583333, 124.25, , 
seaport, TABACO, PH, 13.366667, 123.733333, , 
seaport, LEGAZPI PORT, PH, 13.15, 123.75, , 
seaport, CAM PHA, VN, 21.033333, 107.366667, , 
seaport, TULAGHI, SB, -9.1, 160.15, , 
seaport, HONIARA, SB, -9.416667, 159.95, , 
seaport, LUGANVILLE, VU, -15.516667, 167.166667, , 
seaport, PORT VILA, VU, -17.733333, 168.316667, , 
seaport, FORARI BAY, VU, -17.683333, 168.55, , 
seaport, BAIE DE KOUAOUA, NC, -21.383333, 165.816667, , 
seaport, KUANTAN NEW PORT, MY, 3.966667, 103.433333, , 
seaport, KIRTEH OIL TERMINAL, MY, 4.566667, 103.466667, , 
seaport, KUALA TRENGGANU, MY, 5.35, 103.133333, , 
seaport, TAPIS MARINE TERMINAL A, MY, 5.516667, 105.016667, , 
seaport, BANGKOK, TH, 13.75, 100.5, , 
seaport, SI RACHA TERMINAL, TH, 13.116667, 100.883333, , 
seaport, KO SI CHANG TERMINAL, TH, 13.166667, 100.816667, , 
seaport, KAMPONG SAOM, KH, 10.633333, 103.5, , 
seaport, PHSAR REAM, KH, 10.5, 103.6, , 
seaport, DUONG DONG, VN, 10.216667, 103.966667, , 
seaport, THANH HO CHI MINH, VN, 10.766667, 106.716667, , 
seaport, VINH CAM RANH, VN, 11.883333, 109.166667, , 
seaport, NHA TRANG, VN, 12.25, 109.233333, , 
seaport, QUI NHON, VN, 13.766667, 109.233333, , 
seaport, DA NANG, VN, 16.1, 108.216667, , 
seaport, HAI PHONG, VN, 20.916667, 106.683333, , 
seaport, HON GAI, VN, 20.95, 107.066667, , 
seaport, YANDINA, SB, -9.083333, 159.216667, , 
seaport, TERN ISLAND, US, 23.866667, -166.283333, , 
seaport, JOHNSTON ATOLL, XU, 16.75, -169.516667, , 
seaport, MIDWAY ISLAND, QM, 28.183333, -177.366667, , 
seaport, WAKE ISLAND, QW, 19.283333, 166.616667, , 
seaport, MAJURO ATOLL, MH, 7.083333, 171.383333, , 
seaport, TARAWA ATOLL, KI, 1.333333, 172.933333, , 
seaport, NAURU, NR, -0.533333, 166.916667, , 
seaport, SAIPAN, MP, 15.2, 145.683333, , 
seaport, TINIAN, MP, 14.966667, 145.616667, , 
seaport, ROTA, MP, 14.133333, 145.15, , 
seaport, APRA HARBOR, GU, 13.45, 144.616667, , 
seaport, LELE HARBOR, FM, 5.333333, 163.033333, , 
seaport, COLONIA, FM, 9.516667, 138.133333, , 
seaport, MALAKAL HARBOR, FM, 7.333333, 134.45, , 
seaport, LONGAN ISLAND, PG, -1.216667, 144.3, , 
seaport, LORENGAU, PG, -2.016667, 147.266667, , 
seaport, WEWAK HARBOR, PG, -3.566667, 143.633333, , 
seaport, HAMBURG HARBOR, PG, -1.633333, 149.966667, , 
seaport, KOKOPO, PG, -4.333333, 152.266667, , 
seaport, KIMBE, PG, -5.133333, 150.533333, , 
seaport, KIETA, PG, -6.216667, 155.633333, , 
seaport, GIZO HARBOR, SB, -8.1, 156.85, , 
seaport, NONOPAPA, US, 21.866667, -160.233333, , 
seaport, APIA, WS, -13.816667, -171.766667, , 
seaport, PAGO PAGO HARBOR, AS, -14.283333, -170.666667, , 
seaport, ALOFI, NU, -19.033333, -169.933333, , 
seaport, AVATIU, CK, -21.2, -159.783333, , 
seaport, VAITAPE, PF, -16.5, -151.75, , 
seaport, UTUROA, PF, -16.733333, -151.45, , 
seaport, PAPEETE, PF, -17.533333, -149.583333, , 
seaport, PORT RIKITEA, PF, -23.116667, -134.966667, , 
seaport, ATUONA, PF, -9.816667, -139.033333, , 
seaport, BAIE TAIOHAE, PF, -8.933333, -140.083333, , 
seaport, CANTON ISLAND, KI, -2.833333, -171.716667, , 
seaport, ENGLISH HARBOR, KI, 3.85, -159.366667, , 
seaport, HONOKAA, US, 20.1, -155.466667, , 
seaport, HILO, US, 19.733333, -155.066667, , 
seaport, HONUAPO, US, 19.083333, -155.55, , 
seaport, MILOLII, US, 19.183333, -155.9, , 
seaport, KAUHAKO BAY, US, 19.383333, -155.9, , 
seaport, NAPOOPOO, US, 19.483333, -155.933333, , 
seaport, KAILUA, US, 19.633333, -156.0, , 
seaport, KIHOLO, US, 19.866667, -155.95, , 
seaport, KAWAIHAE, US, 20.033333, -155.833333, , 
seaport, MAHUKONA, US, 20.183333, -155.9, , 
seaport, KAHULUI, US, 20.9, -156.466667, , 
seaport, HANA, US, 20.75, -155.983333, , 
seaport, LAHAINA, US, 20.866667, -156.666667, , 
seaport, KAUMALAPAU HARBOR, US, 20.783333, -157.0, , 
seaport, PUKOO, US, 21.066667, -156.8, , 
seaport, KAMALO, US, 21.05, -156.883333, , 
seaport, KAUNAKAKAI, US, 21.083333, -157.033333, , 
seaport, HONOLULU, US, 21.3, -157.866667, , 
seaport, PORT ALLEN, US, 21.9, -159.583333, , 
seaport, NAWILIWILI BAY, US, 21.95, -159.35, , 
seaport, AHUKINI LANDING, US, 22.0, -159.333333, , 
seaport, MATA-UTU, WF, -13.283333, -176.133333, , 
seaport, DEVONPORT, AU, -41.183333, 146.366667, , 
seaport, BEAUTY POINT, AU, -41.15, 146.816667, , 
seaport, LAUNCESTON, AU, -41.45, 147.116667, , 
seaport, WHANGAROA, NZ, -35.05, 173.766667, , 
seaport, OPUA, NZ, -35.316667, 174.116667, , 
seaport, WHANGAREI, NZ, -35.8, 174.433333, , 
seaport, AUCKLAND, NZ, -36.85, 174.766667, , 
seaport, TAURANGA, NZ, -37.633333, 176.166667, , 
seaport, GISBORNE, NZ, -38.666667, 178.033333, , 
seaport, NAPIER, NZ, -39.483333, 176.916667, , 
seaport, WELLINGTON, NZ, -41.283333, 174.783333, , 
seaport, WANGANUI, NZ, -39.95, 175.033333, , 
seaport, NEW PLYMOUTH, NZ, -39.066667, 174.033333, , 
seaport, MANUKAU HARBOR, NZ, -36.933333, 174.783333, , 
seaport, COLLINGWOOD, NZ, -40.683333, 172.666667, , 
seaport, NELSON, NZ, -41.266667, 173.266667, , 
seaport, PICTON, NZ, -41.283333, 174.016667, , 
seaport, PORT LYTTELTON, NZ, -43.6, 172.716667, , 
seaport, AKAROA, NZ, -43.8, 172.966667, , 
seaport, TIMARU, NZ, -44.4, 171.25, , 
seaport, OTAGO HARBOR, NZ, -45.816667, 170.633333, , 
seaport, BLUFF HARBOR, NZ, -46.6, 168.333333, , 
seaport, GREYMOUTH, NZ, -42.433333, 171.216667, , 
seaport, WESTPORT, NZ, -41.75, 171.6, , 
seaport, KINGSTON, NF, -29.066667, 167.95, , 
seaport, LAUTOKA HARBOR, FJ, -17.6, 177.45, , 
seaport, SUVA HARBOR, FJ, -18.133333, 178.416667, , 
seaport, LEVUKA, FJ, -17.683333, 178.833333, , 
seaport, MALAI, FJ, -16.35, 179.366667, , 
seaport, SAVUSAVU BAY, FJ, -16.766667, 179.333333, , 
seaport, NUKU ALOFA, TO, -21.133333, -175.2, , 
seaport, PANGAI, TO, -19.8, -174.35, , 
seaport, NEIAFU, TO, -18.65, -173.983333, , 
seaport, FUNAFUTI ATOLL, TV, -8.516667, 179.133333, , 
seaport, PORT BONYTHON, AU, -33.016667, 137.766667, , 
seaport, PORT LINCOLN, AU, -34.716667, 135.85, , 
seaport, THEVENARD, AU, -32.166667, 133.65, , 
seaport, ESPERANCE, AU, -33.866667, 121.9, , 
seaport, ALBANY, AU, -35.033333, 117.883333, , 
seaport, BUNBURY, AU, -33.316667, 115.633333, , 
seaport, FREMANTLE, AU, -32.05, 115.75, , 
seaport, GERALDTON, AU, -28.783333, 114.6, , 
seaport, POINT MURAT, AU, -21.816667, 114.183333, , 
seaport, ONSLOW, AU, -21.65, 115.1, , 
seaport, PORT WALCOTT, AU, -20.65, 117.183333, , 
seaport, DAMPIER, AU, -20.633333, 116.716667, , 
seaport, PORT HEDLAND, AU, -20.316667, 118.583333, , 
seaport, BROOME, AU, -17.966667, 122.233333, , 
seaport, WYNDHAM, AU, -15.466667, 128.1, , 
seaport, DARWIN, AU, -12.466667, 130.85, , 
seaport, MILNER BAY, AU, -13.866667, 136.416667, , 
seaport, WEIPA, AU, -12.666667, 141.866667, , 
seaport, GOVE, AU, -12.2, 136.7, , 
seaport, KARUMBA, AU, -17.483333, 140.833333, , 
seaport, HOBART, AU, -42.883333, 147.333333, , 
seaport, PORT HUON, AU, -43.166667, 146.983333, , 
seaport, DOVER, AU, -43.316667, 147.033333, , 
seaport, STANLEY, AU, -40.766667, 145.283333, , 
seaport, PORT LATTA, AU, -40.833333, 145.383333, , 
seaport, BURNIE, AU, -41.05, 145.95, , 
seaport, WHYALLA, AU, -33.033333, 137.583333, , 
seaport, BALLINA, AU, -28.866667, 153.566667, , 
seaport, NEWCASTLE, AU, -32.916667, 151.783333, , 
seaport, SYDNEY, AU, -33.866667, 151.2, , 
seaport, BOTANY BAY, AU, -34.0, 151.233333, , 
seaport, PORT KEMBLA, AU, -34.483333, 150.916667, , 
seaport, JERVIS BAY, AU, -35.116667, 150.8, , 
seaport, BATEMANS BAY, AU, -35.7, 150.166667, , 
seaport, EDEN, AU, -37.066667, 149.916667, , 
seaport, WELSHPOOL, AU, -38.7, 146.466667, , 
seaport, WESTERN PORT, AU, -38.35, 145.233333, , 
seaport, MELBOURNE, AU, -37.833333, 144.966667, , 
seaport, GEELONG, AU, -38.15, 144.366667, , 
seaport, WARRNAMBOOL, AU, -38.4, 142.483333, , 
seaport, PORTLAND, AU, -38.333333, 141.6, , 
seaport, KINGSCOTE, AU, -35.633333, 137.633333, , 
seaport, PORT ADELAIDE, AU, -34.85, 138.5, , 
seaport, ARDROSSAN, AU, -34.433333, 137.916667, , 
seaport, PORT GILES, AU, -35.033333, 137.766667, , 
seaport, WALLAROO, AU, -33.933333, 137.616667, , 
seaport, PORT PIRIE, AU, -33.183333, 138.016667, , 
seaport, FAKFAK, ID, -2.933333, 132.283333, , 
seaport, AMAMAPARE, ID, -4.816667, 136.966667, , 
seaport, MERAUKE, ID, -8.483333, 140.383333, , 
seaport, DARU, PG, -9.066667, 143.2, , 
seaport, PORT MORESBY, PG, -9.466667, 147.133333, , 
seaport, ALOTOA, PG, -10.316667, 150.45, , 
seaport, SAMARAI, PG, -10.616667, 150.666667, , 
seaport, SULOGA HARBOR, PG, -9.216667, 152.766667, , 
seaport, DISCOVERY BAY, PG, -10.416667, 150.416667, , 
seaport, ORO BAY, PG, -8.883333, 148.483333, , 
seaport, LAE, PG, -6.733333, 147.0, , 
seaport, MADANG, PG, -5.216667, 145.816667, , 
seaport, VANIMO, PG, -2.683333, 141.133333, , 
seaport, THURSDAY ISLAND, AU, -10.583333, 142.216667, , 
seaport, CAIRNS, AU, -16.916667, 145.783333, , 
seaport, MOURILYAN HARBOUR, AU, -17.6, 146.133333, , 
seaport, LUCINDA, AU, -18.516667, 146.333333, , 
seaport, TOWNSVILLE, AU, -19.266667, 146.816667, , 
seaport, MACKAY, AU, -21.116667, 149.216667, , 
seaport, HAY POINT, AU, -21.283333, 149.3, , 
seaport, PORT ALMA, AU, -23.583333, 150.85, , 
seaport, GLADSTONE, AU, -23.85, 151.25, , 
seaport, BUNDABERG, AU, -24.866667, 152.35, , 
seaport, BRISBANE, AU, -27.466667, 153.033333, , 
seaport, SAILOLOF, ID, -1.25, 130.75, , 
seaport, BAUBAU, ID, -5.466667, 122.616667, , 
seaport, RAHA ROADSTEAD, ID, -4.85, 122.733333, , 
seaport, POMALAA, ID, -4.166667, 121.6, , 
seaport, UJUNG PANDANG, ID, -5.133333, 119.4, , 
seaport, DONGGALA, ID, -0.65, 119.733333, , 
seaport, TAHUNA, ID, 3.616667, 125.483333, , 
seaport, TERNATE, ID, 0.783333, 127.383333, , 
seaport, LABUHA, ID, -0.633333, 127.466667, , 
seaport, BULA, ID, -3.1, 130.5, , 
seaport, SALAWATI, ID, -1.35, 130.983333, , 
seaport, AMBON, ID, -3.683333, 128.166667, , 
seaport, NAMLEA, ID, -3.283333, 127.083333, , 
seaport, SAUMLAKI, ID, -7.983333, 131.3, , 
seaport, SERUI, ID, -1.9, 136.25, , 
seaport, MANOKWARI ROAD, ID, -0.866667, 134.083333, , 
seaport, MANGKASA OIL TERMINAL, ID, -2.733333, 121.066667, , 
seaport, KENDARI, ID, -3.966667, 122.583333, , 
seaport, KASIM TERMINAL, ID, -1.3, 131.016667, , 
seaport, BINTULU PORT, MY, 3.266667, 113.066667, , 
seaport, MIRI, MY, 4.383333, 113.966667, , 
seaport, LUTONG, MY, 4.466667, 114.0, , 
seaport, MUARA HARBOR, BN, 5.033333, 115.066667, , 
seaport, BANDAR SERI BEGAWAN, BN, 4.883333, 114.883333, , 
seaport, SERIA OIL LOADING TERMINAL, BN, 4.616667, 114.316667, , 
seaport, VICTORIA, MY, 5.283333, 115.233333, , 
seaport, KOTA KINABALU, MY, 5.983333, 116.066667, , 
seaport, KUDAT, MY, 6.883333, 116.85, , 
seaport, PELABUHAN SANDAKAN, MY, 5.833333, 118.116667, , 
seaport, LAHAD DATU, MY, 5.016667, 118.316667, , 
seaport, TANJUNG ARANG  (BUNYU), ID, 3.466667, 117.833333, , 
seaport, LINGKAS, ID, 3.283333, 117.6, , 
seaport, TANJUNGREDEB, ID, 2.15, 117.483333, , 
seaport, BENOA, ID, 0.983333, 117.966667, , 
seaport, BONTANG LNG TERMINAL, ID, 0.1, 117.483333, , 
seaport, TANJUNG SANTAN, ID, -0.1, 117.533333, , 
seaport, SAMARINDA, ID, -0.516667, 117.116667, , 
seaport, SENIPAH OIL TERMINAL, ID, -0.95, 117.166667, , 
seaport, BALIKPAPAN, ID, -1.25, 116.816667, , 
seaport, LAWI LAWI OIL TERMINAL, ID, -1.45, 116.766667, , 
seaport, GUNUNG BATU BESAR, ID, -2.616667, 116.3, , 
seaport, KOTA BARU, ID, -3.233333, 116.216667, , 
seaport, BANJARMASIN, ID, -3.333333, 114.583333, , 
seaport, KUMAI, ID, -2.75, 111.716667, , 
seaport, PONTIANAK, ID, -0.016667, 109.333333, , 
seaport, MANADO, ID, 1.5, 124.833333, , 
seaport, GORONTALO, ID, 0.5, 123.05, , 
seaport, POSO, ID, -1.366667, 120.75, , 
seaport, KOLONODALE, ID, -1.983333, 121.333333, , 
seaport, KUCHING, MY, 1.566667, 110.35, , 
seaport, SIBU, MY, 2.283333, 111.816667, , 
seaport, SARIKEI, MY, 2.133333, 111.533333, , 
seaport, SUNGAIPAKNING, ID, 1.35, 102.166667, , 
seaport, FLYING FISH COVE, CX, -10.416667, 105.7, , 
seaport, BANTEN, ID, -6.016667, 105.966667, , 
seaport, ANYER LOR, ID, -6.05, 105.916667, , 
seaport, TANJUNG SEKONG, ID, -5.916667, 106.0, , 
seaport, JAKARTA, ID, -6.1, 106.883333, , 
seaport, CIREBON, ID, -6.716667, 108.566667, , 
seaport, TEGAL, ID, -6.85, 109.133333, , 
seaport, PEKALONGAN, ID, -6.85, 109.7, , 
seaport, SEMARANG, ID, -6.95, 110.416667, , 
seaport, REMBANG, ID, -6.7, 111.35, , 
seaport, TUBAN, ID, -6.733333, 112.15, , 
seaport, SURABAYA, ID, -7.2, 112.733333, , 
seaport, PANARUKAN, ID, -7.7, 113.933333, , 
seaport, CILACAP, ID, -7.733333, 109.0, , 
seaport, BENOA, ID, -8.75, 115.216667, , 
seaport, LABUHANHAJI, ID, -8.7, 116.566667, , 
seaport, MAUMERE, ID, -8.616667, 122.216667, , 
seaport, LARANTUKA, ID, -8.35, 122.983333, , 
seaport, ENDE, ID, -8.833333, 121.65, , 
seaport, TAREMPAH, ID, 3.216667, 106.216667, , 
seaport, BENGKALIS, ID, 1.466667, 102.1, , 
seaport, PULAU BUKOM, SG, 1.233333, 103.766667, , 
seaport, PULAU SEBAROK, SG, 1.2, 103.8, , 
seaport, TANJUNGUBAN, ID, 1.066667, 104.216667, , 
seaport, TANJUNGPINANG, ID, 0.916667, 104.45, , 
seaport, KIJANG, ID, 0.85, 104.6, , 
seaport, PULAU SAMBU, ID, 1.166667, 103.9, , 
seaport, DABO, ID, -0.5, 104.566667, , 
seaport, TOBOALI, ID, -3.016667, 106.45, , 
seaport, MUNTOK, ID, -2.066667, 105.166667, , 
seaport, PANGKALPINANG, ID, -2.116667, 106.133333, , 
seaport, CINTA OIL TERMINAL, ID, -5.5, 106.233333, , 
seaport, PANJANG, ID, -5.466667, 105.316667, , 
seaport, TELUK BAYUR, ID, -1.0, 100.366667, , 
seaport, SIBOLGA, ID, 1.733333, 98.766667, , 
seaport, ULEELHEUE, ID, 5.566667, 95.283333, , 
seaport, SABANG, ID, 5.883333, 95.316667, , 
seaport, BLANGLANCANG, ID, 5.25, 97.116667, , 
seaport, PANGKALANSUSU, ID, 4.116667, 98.216667, , 
seaport, MUAR, MY, 2.05, 102.566667, , 
seaport, DUMAI, ID, 1.683333, 101.45, , 
seaport, TRINCOMALEE HARBOR, LK, 8.55, 81.216667, , 
seaport, KANKESANTURAI, LK, 9.816667, 80.05, , 
seaport, TUTICORIN, IN, 8.8, 78.166667, , 
seaport, NAGAPPATTINAM, IN, 10.766667, 79.85, , 
seaport, CUDDALORE, IN, 11.716667, 79.766667, , 
seaport, PONDICHERRY, IN, 11.933333, 79.833333, , 
seaport, CHENNAI (MADRAS), IN, 13.1, 80.3, , 
seaport, MACHILIPATNAM, IN, 16.15, 81.166667, , 
seaport, KAKINADA BAY, IN, 17.0, 82.316667, , 
seaport, VISHAKHAPATNAM, IN, 17.683333, 83.3, , 
seaport, PARADIP, IN, 20.266667, 86.683333, , 
seaport, HALDIA PORT, IN, 22.016667, 88.083333, , 
seaport, CALCUTTA, IN, 22.55, 88.333333, , 
seaport, MONGLA, BD, 22.466667, 89.6, , 
seaport, CHITTAGONG, BD, 22.316667, 91.816667, , 
seaport, SITTWE, MM, 20.133333, 92.9, , 
seaport, BASSEIN, MM, 16.783333, 94.733333, , 
seaport, RANGOON, MM, 16.766667, 96.166667, , 
seaport, MOULMEIN HARBOR, MM, 16.483333, 97.616667, , 
seaport, MERGUI, MM, 12.433333, 98.6, , 
seaport, PORT BLAIR, IN, 11.683333, 92.75, , 
seaport, PHUKET, TH, 7.833333, 98.4, , 
seaport, KRABI, TH, 8.066667, 98.916667, , 
seaport, KANTANG HARBOR, TH, 7.4, 99.516667, , 
seaport, PORT KLANG, MY, 3.0, 101.4, , 
seaport, PORT DICKSON, MY, 2.516667, 101.8, , 
seaport, MELAKA, MY, 2.2, 102.25, , 
seaport, COLOMBO, LK, 6.95, 79.85, , 
seaport, GALLE HARBOR, LK, 6.016667, 80.216667, , 
seaport, BANDAR-E MAHSHAHR, IR, 30.466667, 49.183333, , 
seaport, BANDAR KHOMEYNI, IR, 30.433333, 49.083333, , 
seaport, KHARG ISLAND OIL TERMINAL, IR, 29.233333, 50.333333, , 
seaport, SIRUS OIL TERMINAL, IR, 29.016667, 49.483333, , 
seaport, BUSHEHR, IR, 28.983333, 50.833333, , 
seaport, JAZIREH-YE LAVAN OIL TERMINAL, IR, 26.783333, 53.333333, , 
seaport, JAZIREH-YE HORMOZ, IR, 27.1, 56.45, , 
seaport, JAZIREH-YE SIRRI, IR, 25.9, 54.55, , 
seaport, CHAH BAHAR, IR, 25.266667, 60.616667, , 
seaport, KARACHI, PK, 24.783333, 66.983333, , 
seaport, MUHAMAMAD BIN QASIM, PK, 24.766667, 67.35, , 
seaport, MANDVI, IN, 22.833333, 69.35, , 
seaport, OKHA, IN, 22.466667, 69.083333, , 
seaport, VERAVAL, IN, 20.9, 70.366667, , 
seaport, BHAVNAGAR, IN, 21.766667, 72.233333, , 
seaport, MUMBAI (BOMBAY), IN, 18.966667, 72.866667, , 
seaport, JAWAHARLAL NEHRU PORT (NHAVA SHIVA), IN, 18.95, 72.95, , 
seaport, MARMAGAO, IN, 15.433333, 73.8, , 
seaport, KARWAR, IN, 14.816667, 74.116667, , 
seaport, AZHIKAL (AZHIKKAL), IN, 11.916667, 75.3, , 
seaport, CALICUT (KOZHIKODE), IN, 11.25, 75.766667, , 
seaport, BEYPORE, IN, 11.166667, 75.8, , 
seaport, KOCHI (COCHIN), IN, 9.966667, 76.233333, , 
seaport, QUILON (KOLLAM), IN, 8.883333, 76.583333, , 
seaport, KOLACHEL, IN, 8.166667, 77.25, , 
seaport, MALE, MV, 4.166667, 73.5, , 
seaport, ABADAN, IR, 30.333333, 48.283333, , 
seaport, MINA RAYSUT, OM, 16.933333, 54.016667, , 
seaport, MINA QABUS, OM, 23.633333, 58.583333, , 
seaport, MINA AL FAHL, OM, 23.633333, 58.516667, , 
seaport, FUJAYRAH HARBOR, AE, 25.166667, 56.333333, , 
seaport, KHAWR FAKKAN, AE, 25.35, 56.383333, , 
seaport, MINA SAQR, AE, 25.983333, 56.05, , 
seaport, FATEH OIL TERMINAL, AE, 25.583333, 54.416667, , 
seaport, MUBARRAZ OIL TERMINAL, AE, 24.433333, 53.516667, , 
seaport, AL HAMRIYAH LPG TERMINAL, AE, 25.466667, 55.483333, , 
seaport, DUBAYY, AE, 25.266667, 55.3, , 
seaport, MINA JABAL ALI, AE, 25.016667, 55.05, , 
seaport, JAZIRAT DAS, AE, 25.15, 52.866667, , 
seaport, ABU ZABY, AE, 24.5, 54.333333, , 
seaport, UMM AN NAR, AE, 24.45, 54.483333, , 
seaport, JABAL AZ ZANNAH/RUWAYS, AE, 24.2, 52.7, , 
seaport, UMM SAID, QA, 24.916667, 51.566667, , 
seaport, DOHA, QA, 25.283333, 51.533333, , 
seaport, JAZIRAT HALUL, QA, 25.683333, 52.416667, , 
seaport, SITRAH, BH, 26.166667, 50.666667, , 
seaport, MINA SALMAN, BH, 26.2, 50.633333, , 
seaport, DAMMAM, SA, 26.5, 50.2, , 
seaport, AL JUBAYL, SA, 27.083333, 49.666667, , 
seaport, RAS  TANNURAH, SA, 26.633333, 50.166667, , 
seaport, JU AYMAH OIL TERMINAL, SA, 26.933333, 50.033333, , 
seaport, MINA AZ ZAWR, KW, 28.733333, 48.4, , 
seaport, MINA ASH SHUAYBAH, KW, 29.033333, 48.166667, , 
seaport, MINA ABD ALLAH, KW, 29.016667, 48.166667, , 
seaport, MINA AL AHMADI, KW, 29.066667, 48.166667, , 
seaport, KHAWR AL AMAYA, IQ, 29.783333, 48.8, , 
seaport, AL-BASRA OIL TERMINAL, IQ, 29.683333, 48.816667, , 
seaport, UMM QASR, IQ, 30.016667, 47.95, , 
seaport, AL BASRAH, IQ, 30.516667, 47.833333, , 
seaport, KHORRAMSHAHR, IR, 30.433333, 48.183333, , 
seaport, AL AHMADI, YE, 14.833333, 42.966667, , 
seaport, ADEN, YE, 12.783333, 44.95, , 
seaport, AL MUKALLA, YE, 14.516667, 49.116667, , 
seaport, MAINTIRANO, MG, -18.066667, 44.016667, , 
seaport, FARADOFAY, MG, -25.033333, 47.0, , 
seaport, MANAKARA, MG, -22.116667, 48.05, , 
seaport, MAROANTSETRA, MG, -15.45, 49.816667, , 
seaport, IHARANA, MG, -13.35, 50.0, , 
seaport, PORT EST, RE, -20.933333, 55.316667, , 
seaport, SAINT-PIERRE, RE, -21.35, 55.466667, , 
seaport, DIEGO GARCIA, IO, -7.35, 72.466667, , 
seaport, BERBERA, SO, 10.45, 45.016667, , 
seaport, DJIBOUTI, DJ, 11.6, 43.133333, , 
seaport, ASSAB, ER, 13.0, 42.75, , 
seaport, MITSIWA HARBOR, ER, 15.616667, 39.466667, , 
seaport, PORT SUDAN, SD, 19.6, 37.233333, , 
seaport, AL QUSAYR, EG, 26.1, 34.283333, , 
seaport, BUR SAFAGA, EG, 26.733333, 33.95, , 
seaport, ZEIT BAY TERMINAL, EG, 27.833333, 33.6, , 
seaport, EL GHARDAQA, EG, 27.216667, 33.85, , 
seaport, RAS SHUKHIER, EG, 28.133333, 33.283333, , 
seaport, RAS GHARIB, EG, 28.35, 33.1, , 
seaport, AS SUWAYS, EG, 29.966667, 32.55, , 
seaport, EL-ADABIYA, EG, 29.866667, 32.466667, , 
seaport, EL ISMAILIYA, EG, 30.583333, 32.283333, , 
seaport, RAS ABU ZANIMAH, EG, 29.033333, 33.116667, , 
seaport, WADI FEIRAN, EG, 28.75, 33.2, , 
seaport, ELAT, IL, 29.55, 34.95, , 
seaport, AL AQABAH, JO, 29.516667, 35.0, , 
seaport, YANBU, SA, 24.083333, 38.05, , 
seaport, JIDDAH, SA, 21.483333, 39.183333, , 
seaport, JIZAN, SA, 16.9, 42.483333, , 
seaport, SIMONSTOWN, ZA, -34.183333, 18.433333, , 
seaport, MOSSEL BAY, ZA, -34.183333, 22.15, , 
seaport, PORT ELIZABETH, ZA, -33.966667, 25.616667, , 
seaport, RICHARDS BAY, ZA, -28.816667, 32.083333, , 
seaport, MAPUTO, MZ, -25.966667, 32.583333, , 
seaport, CHINDE, MZ, -18.566667, 36.5, , 
seaport, QUELIMANE, MZ, -17.883333, 36.883333, , 
seaport, MOCAMBIQUE, MZ, -15.033333, 40.733333, , 
seaport, NACALA, MZ, -14.533333, 40.666667, , 
seaport, MIKINDANI, TZ, -10.266667, 40.133333, , 
seaport, MTWARA, TZ, -10.266667, 40.2, , 
seaport, DAR ES SALAAM, TZ, -6.816667, 39.3, , 
seaport, CHAKE CHAKE, TZ, -5.25, 39.766667, , 
seaport, MOMBASA, KE, -4.066667, 39.85, , 
seaport, KILIFI, KE, -3.633333, 39.866667, , 
seaport, MALINDI, KE, -3.216667, 40.133333, , 
seaport, MARKA, SO, 1.716667, 44.783333, , 
seaport, MUQDISHO, SO, 2.033333, 45.35, , 
seaport, FOMBONI, KM, -12.266667, 43.75, , 
seaport, MOUTSAMOUDU, KM, -12.15, 44.4, , 
seaport, MAHAJANGA, MG, -15.716667, 46.3, , 
seaport, SALDANHA BAY, ZA, -33.033333, 17.966667, , 
seaport, CAPE TOWN, ZA, -33.916667, 18.416667, , 
seaport, OKRIKA, NG, 4.716667, 7.083333, , 
seaport, PORT HARCOURT, NG, 4.766667, 7.0, , 
seaport, ANTAN OIL TERMINAL, NG, 4.216667, 8.333333, , 
seaport, CALABAR, NG, 4.966667, 8.316667, , 
seaport, DOUALA, CM, 4.05, 9.683333, , 
seaport, KOLE OIL TERMINAL, CM, 4.25, 8.55, , 
seaport, BATA, GQ, 1.866667, 9.766667, , 
seaport, LIBREVILLE, GA, 0.383333, 9.45, , 
seaport, PORT OWENDO, GA, 0.283333, 9.5, , 
seaport, PORT GENTIL, GA, -0.7, 8.8, , 
seaport, CAP LOPEZ, GA, -0.633333, 8.716667, , 
seaport, OGUENDJO TERMINAL, GA, -1.466667, 8.916667, , 
seaport, GAMBA OIL TERMINAL, GA, -2.833333, 10.0, , 
seaport, POINTE NOIRE, CG, -4.783333, 11.833333, , 
seaport, MALONGO OIL TERMINAL, AO, -5.433333, 12.083333, , 
seaport, CABINDA, AO, -5.533333, 12.2, , 
seaport, BANANA, CD, -5.983333, 12.383333, , 
seaport, BOMA, CD, -5.85, 13.05, , 
seaport, PALANCA TERMINAL, AO, -6.95, 12.4, , 
seaport, PORTO DO AMBRIZ, AO, -7.833333, 13.1, , 
seaport, LUANDA, AO, -8.8, 13.25, , 
seaport, LOBITO, AO, -12.333333, 13.566667, , 
seaport, NAMIBE, AO, -15.2, 12.15, , 
seaport, GEORGETOWN, SH, -7.933333, -14.416667, , 
seaport, BONNY, NG, 4.45, 7.166667, , 
seaport, BANJUL, GM, 13.45, -16.566667, , 
seaport, RIO CACHEU, GW, 12.283333, -16.233333, , 
seaport, BISSAU, GW, 11.866667, -15.633333, , 
seaport, VICTORIA, GN, 10.816667, -14.566667, , 
seaport, KAMSAR, GN, 10.633333, -14.616667, , 
seaport, CONAKRY, GN, 9.516667, -13.716667, , 
seaport, BENTI, GN, 9.166667, -13.2, , 
seaport, FREETOWN, SL, 8.5, -13.233333, , 
seaport, PEPEL, SL, 8.583333, -13.05, , 
seaport, BONTHE, SL, 7.533333, -12.5, , 
seaport, PORTO GRANDE, CV, 16.883333, -25.0, , 
seaport, PORTO DA PRAIA, CV, 14.916667, -23.516667, , 
seaport, MONROVIA, LR, 6.316667, -10.816667, , 
seaport, BUCHANAN, LR, 5.866667, -10.066667, , 
seaport, GREENVILLE, LR, 4.983333, -9.05, , 
seaport, CAPE PALMAS, LR, 4.366667, -7.716667, , 
seaport, SAN PEDRO, CI, 4.733333, -6.616667, , 
seaport, PORT BOUET, CI, 5.233333, -3.966667, , 
seaport, ABIDJAN, CI, 5.25, -4.016667, , 
seaport, TAKORADI, GH, 4.883333, -1.733333, , 
seaport, SEKONDI, GH, 4.95, -1.7, , 
seaport, SALTPOND, GH, 5.2, -1.05, , 
seaport, TEMA, GH, 5.616667, 0.016667, , 
seaport, LOME, TG, 6.133333, 1.283333, , 
seaport, KPEME, TG, 6.2, 1.516667, , 
seaport, COTONOU, BJ, 6.35, 2.433333, , 
seaport, LAGOS, NG, 6.4, 3.4, , 
seaport, ESCRAVOS OIL TERMINAL, NG, 5.5, 5.0, , 
seaport, KOKO, NG, 6.0, 5.466667, , 
seaport, FORCADOS, NG, 5.366667, 5.433333, , 
seaport, BURUTU, NG, 5.35, 5.5, , 
seaport, BRASS OIL TERMINAL, NG, 4.066667, 6.283333, , 
seaport, RUFISQUE, SN, 14.7, -17.283333, , 
seaport, KARABANE, SN, 12.566667, -16.666667, , 
seaport, LA GOULETTE, TN, 36.8, 10.3, , 
seaport, TUNIS, TN, 36.8, 10.25, , 
seaport, TAZERKA OIL TERMINAL, TN, 36.6, 11.683333, , 
seaport, BANZART, TN, 37.283333, 9.883333, , 
seaport, ANNABA, DZ, 36.916667, 7.766667, , 
seaport, SKIKDA, DZ, 36.883333, 6.916667, , 
seaport, COLLO, DZ, 37.0, 6.583333, , 
seaport, BEJAIA, DZ, 36.75, 5.083333, , 
seaport, DELLYS, DZ, 36.916667, 3.916667, , 
seaport, ALGER, DZ, 36.766667, 3.066667, , 
seaport, TENES, DZ, 36.533333, 1.316667, , 
seaport, MOSTAGANEM, DZ, 35.933333, 0.083333, , 
seaport, ARZEW, DZ, 35.85, -0.3, , 
seaport, ARZEW EL DJEDID, DZ, 35.816667, -0.25, , 
seaport, ORAN, DZ, 35.7, -0.633333, , 
seaport, MERS EL KEBIR, DZ, 35.733333, -0.7, , 
seaport, BENI SAF, DZ, 35.3, -1.383333, , 
seaport, GHAZAOUET, DZ, 35.1, -1.866667, , 
seaport, TANGER, MA, 35.783333, -5.816667, , 
seaport, PORT NADOR, MA, 35.283333, -2.933333, , 
seaport, KENITRA, MA, 34.3, -6.6, , 
seaport, MOHAMMEDIA, MA, 33.716667, -7.4, , 
seaport, CASABLANCA, MA, 33.6, -7.616667, , 
seaport, SAFI, MA, 32.3, -9.25, , 
seaport, ESSAOUIRA, MA, 31.5, -9.783333, , 
seaport, AD DAKHLA, EH, 23.7, -15.916667, , 
seaport, NOUADHIBOU, MR, 20.916667, -17.05, , 
seaport, ST LOUIS, SN, 16.016667, -16.516667, , 
seaport, DAKAR, SN, 14.683333, -17.433333, , 
seaport, MERSA SFAX, TN, 34.733333, 10.766667, , 
seaport, MAHDIA, TN, 35.5, 11.066667, , 
seaport, SOUSSE, TN, 35.833333, 10.65, , 
seaport, MERSIN, TR, 36.8, 34.633333, , 
seaport, BOTAS, TR, 36.883333, 35.933333, , 
seaport, ISKENDERUN, TR, 36.6, 36.166667, , 
seaport, KYRENIA, CY, 35.35, 33.333333, , 
seaport, XEROS, CY, 35.133333, 32.833333, , 
seaport, LIMASSOL, CY, 34.666667, 33.05, , 
seaport, LARNACA, CY, 34.916667, 33.65, , 
seaport, DHEKELIA, CY, 34.966667, 33.716667, , 
seaport, FAMAGUSTA, CY, 35.116667, 33.933333, , 
seaport, TARTUS, SY, 34.9, 35.866667, , 
seaport, BANIYAS, SY, 35.183333, 35.95, , 
seaport, AL LADHIQIYAH, SY, 35.533333, 35.766667, , 
seaport, TARABULUS, LB, 34.45, 35.833333, , 
seaport, SAYDA, LB, 33.5, 35.35, , 
seaport, ASHDOD, IL, 31.816667, 34.65, , 
seaport, MERSA TOBRUQ, LY, 32.083333, 23.983333, , 
seaport, DARNAH, LY, 32.766667, 22.65, , 
seaport, BANGHAZI, LY, 32.116667, 20.05, , 
seaport, EZ ZUEITINA, LY, 30.85, 20.05, , 
seaport, AL BURAYQAH, LY, 30.416667, 19.6, , 
seaport, RAS   LANUF, LY, 30.516667, 18.566667, , 
seaport, AS SIDR, LY, 30.633333, 18.366667, , 
seaport, MISRATAH, LY, 32.366667, 15.216667, , 
seaport, MINA TARABULUS (TRIPOLI), LY, 32.9, 13.183333, , 
seaport, AZ ZAWIYA, LY, 32.8, 12.716667, , 
seaport, MARSA SABRATAH, LY, 32.816667, 12.5, , 
seaport, HOUMT SOUK, TN, 33.883333, 10.85, , 
seaport, GABES, TN, 33.9, 10.116667, , 
seaport, SKHIRA, TN, 34.283333, 10.1, , 
seaport, ANTALYA, TR, 36.833333, 30.616667, , 
seaport, ALANYA, TR, 36.533333, 32.0, , 
seaport, TASUCU, TR, 36.316667, 33.883333, , 
seaport, POTI, GE, 42.15, 41.583333, , 
seaport, BATUMI, GE, 41.65, 41.65, , 
seaport, HOPA, TR, 41.416667, 41.4, , 
seaport, RIZE, TR, 41.066667, 40.516667, , 
seaport, TRABZON, TR, 41.016667, 39.766667, , 
seaport, GIRESUN, TR, 40.933333, 38.4, , 
seaport, ORDU, TR, 41.0, 37.883333, , 
seaport, SAMSUN, TR, 41.3, 36.35, , 
seaport, SINOP, TR, 42.05, 35.166667, , 
seaport, INEBOLU, TR, 41.983333, 33.766667, , 
seaport, ZONGULDAK, TR, 41.466667, 31.816667, , 
seaport, EREGLI, TR, 41.3, 31.45, , 
seaport, HAYDARPASA, TR, 41.0, 29.016667, , 
seaport, KABA BURNU, TR, 40.766667, 29.533333, , 
seaport, DERINCE BURNU, TR, 40.75, 29.816667, , 
seaport, IZMIT, TR, 40.766667, 29.916667, , 
seaport, GOLCUK BURNU, TR, 40.733333, 29.816667, , 
seaport, MUDANYA, TR, 40.383333, 28.883333, , 
seaport, BANDIRMA, TR, 40.35, 27.966667, , 
seaport, ERDEK, TR, 40.383333, 27.8, , 
seaport, KARABIGA, TR, 40.4, 27.316667, , 
seaport, CANAKKALE, TR, 40.15, 26.4, , 
seaport, AYVALIK, TR, 39.316667, 26.7, , 
seaport, IZMIR, TR, 38.433333, 27.133333, , 
seaport, NEMRUT LIMANI BAY, TR, 38.766667, 26.916667, , 
seaport, KUSADASI, TR, 37.866667, 27.25, , 
seaport, MARMARIS, TR, 36.85, 28.283333, , 
seaport, FETHIYE, TR, 36.633333, 29.1, , 
seaport, SOKHUMI, GE, 42.983333, 40.983333, , 
seaport, CHORNOMORS KE, UA, 45.516667, 32.7, , 
seaport, YEVPATORIYA, UA, 45.2, 33.383333, , 
seaport, SEVASTOPOL, UA, 44.616667, 33.533333, , 
seaport, BALAKLAVA, UA, 44.5, 33.6, , 
seaport, YALTA, UA, 44.483333, 34.166667, , 
seaport, ALUSHTA, UA, 44.683333, 34.416667, , 
seaport, SUDAK, UA, 44.85, 34.983333, , 
seaport, FEODOSIYA, UA, 45.016667, 35.433333, , 
seaport, KERCH, UA, 45.35, 36.483333, , 
seaport, HENICHESK, UA, 46.166667, 34.816667, , 
seaport, KYRYLIVKA, UA, 46.35, 35.366667, , 
seaport, BERDYANSK, UA, 46.75, 36.783333, , 
seaport, MARIUPOL, UA, 47.083333, 37.566667, , 
seaport, TAGANROG, RU, 47.2, 38.95, , 
seaport, ROSTOV-NA-DONU, RU, 47.166667, 39.716667, , 
seaport, AZOV, RU, 47.1, 39.433333, , 
seaport, YEYSK, RU, 46.733333, 38.266667, , 
seaport, TEMRYUK, RU, 45.35, 37.35, , 
seaport, ANAPA, RU, 44.883333, 37.316667, , 
seaport, NOVOROSSIYSK, RU, 44.716667, 37.783333, , 
seaport, TUAPSE, RU, 44.1, 39.066667, , 
seaport, SOCHI, RU, 43.583333, 39.733333, , 
seaport, ADLER, RU, 43.433333, 39.933333, , 
seaport, SKADOVS'K, UA, 46.1, 32.916667, , 
seaport, KHORLY, UA, 46.083333, 33.283333, , 
seaport, MILOS, GR, 36.716667, 24.45, , 
seaport, SOUDHA, GR, 35.483333, 24.183333, , 
seaport, IRAKLION, GR, 35.35, 25.15, , 
seaport, SITIA, GR, 35.216667, 26.133333, , 
seaport, KALI LIMENES, GR, 34.933333, 24.833333, , 
seaport, RODHOS, GR, 36.45, 28.233333, , 
seaport, LIMIN KOS, GR, 36.9, 27.283333, , 
seaport, KALIMNOS, GR, 36.95, 26.983333, , 
seaport, LAKKI, GR, 37.133333, 26.85, , 
seaport, ECEABAT, TR, 40.183333, 26.366667, , 
seaport, GELIBOLU, TR, 40.4, 26.666667, , 
seaport, TEKIRDAG, TR, 40.983333, 27.516667, , 
seaport, ISTANBUL, TR, 41.016667, 28.966667, , 
seaport, DEFTERDAR BURNU, TR, 41.05, 29.033333, , 
seaport, ISTINYE, TR, 41.116667, 29.05, , 
seaport, BURGAS, BG, 42.483333, 27.483333, , 
seaport, VARNA, BG, 43.183333, 27.966667, , 
seaport, MANGALIA, RO, 43.816667, 28.583333, , 
seaport, CONSTANTA, RO, 44.166667, 28.65, , 
seaport, SULINA, RO, 45.166667, 29.666667, , 
seaport, BRAILA, RO, 45.25, 27.983333, , 
seaport, GALATI, RO, 45.416667, 28.083333, , 
seaport, IZMAYIL, UA, 45.333333, 28.85, , 
seaport, ILLICHIVSK, UA, 46.3, 30.65, , 
seaport, ODESA, UA, 46.483333, 30.733333, , 
seaport, YUZHNYY, UA, 46.6, 31.016667, , 
seaport, MYKOLAYIV, UA, 46.95, 31.983333, , 
seaport, KHERSON, UA, 46.616667, 32.6, , 
seaport, ORMOS ALIVERIOU, GR, 38.383333, 24.05, , 
seaport, PORTHMOS EVRIPOU, GR, 38.466667, 23.583333, , 
seaport, LARIMNA, GR, 38.566667, 23.283333, , 
seaport, STILIS, GR, 38.916667, 22.616667, , 
seaport, TSINGELI, GR, 39.166667, 22.85, , 
seaport, VOLOS, GR, 39.366667, 22.95, , 
seaport, MILIANA, GR, 39.166667, 23.216667, , 
seaport, THESSALONIKI, GR, 40.633333, 22.933333, , 
seaport, YERAKINI, GR, 40.266667, 23.466667, , 
seaport, STRATONI, GR, 40.516667, 23.833333, , 
seaport, LAGOS, GR, 41.0, 25.133333, , 
seaport, ALEXANDROUPOLI, GR, 40.833333, 25.883333, , 
seaport, MITILINI, GR, 39.1, 26.566667, , 
seaport, PLOMARION, GR, 38.983333, 26.366667, , 
seaport, VRAKHONISIS KALLONIS, GR, 39.083333, 26.083333, , 
seaport, KHIOS, GR, 38.366667, 26.133333, , 
seaport, NEON KARLOVAS, GR, 37.8, 26.683333, , 
seaport, SAMOS, GR, 37.75, 26.966667, , 
seaport, PITHAGORION, GR, 37.683333, 26.95, , 
seaport, GAVRIO, GR, 37.883333, 24.733333, , 
seaport, ANDROS, GR, 37.833333, 24.95, , 
seaport, MIKONOS, GR, 37.45, 25.333333, , 
seaport, LIMIN SIROU, GR, 37.433333, 24.95, , 
seaport, NISOS NAXOS, GR, 37.1, 25.366667, , 
seaport, DHIAVLOS STENO, GR, 38.45, 23.6, , 
seaport, SHENGJIN, AL, 41.816667, 19.6, , 
seaport, DURRES, AL, 41.316667, 19.45, , 
seaport, VLORES, AL, 40.466667, 19.5, , 
seaport, KERKIRA, GR, 39.616667, 19.933333, , 
seaport, PREVEZA, GR, 38.95, 20.75, , 
seaport, ARGOSTOLION, GR, 38.183333, 20.516667, , 
seaport, MESOLONGION, GR, 38.366667, 21.416667, , 
seaport, ITEA, GR, 38.433333, 22.416667, , 
seaport, AIYION, GR, 38.25, 22.083333, , 
seaport, PATRAI, GR, 38.25, 21.733333, , 
seaport, KATAKOLON, GR, 37.65, 21.316667, , 
seaport, PILOS, GR, 36.9, 21.666667, , 
seaport, KALAMATA, GR, 37.016667, 22.116667, , 
seaport, YITHION, GR, 36.75, 22.566667, , 
seaport, NAVPLIO, GR, 37.566667, 22.8, , 
seaport, MEGARA OIL TERMINAL, GR, 37.966667, 23.4, , 
seaport, AYIOS NIKOLAOS, GR, 37.983333, 23.533333, , 
seaport, ELEVSIS, GR, 38.033333, 23.55, , 
seaport, PAKHI OIL TERMINAL, GR, 37.966667, 23.383333, , 
seaport, PERAMA, GR, 37.966667, 23.566667, , 
seaport, PIRAIEVS, GR, 37.933333, 23.65, , 
seaport, ORMOS MIKRO VATHI, GR, 38.433333, 23.6, , 
seaport, DUBROVNIK, HR, 42.666667, 18.083333, , 
seaport, PORTO DI BARLETTA, IT, 41.316667, 16.283333, , 
seaport, MANFREDONIA, IT, 41.616667, 15.916667, , 
seaport, VASTO, IT, 42.116667, 14.716667, , 
seaport, ORTONA, IT, 42.35, 14.416667, , 
seaport, PESCARA, IT, 42.466667, 14.216667, , 
seaport, ANCONA, IT, 43.616667, 13.5, , 
seaport, PORTO DI CORSINI, IT, 44.5, 12.283333, , 
seaport, PORTO DI MALAMOCCO, IT, 45.333333, 12.316667, , 
seaport, PORTO DI LIDO-VENEZIA, IT, 45.416667, 12.433333, , 
seaport, MONFALCONE, IT, 45.783333, 13.55, , 
seaport, TRIESTE, IT, 45.65, 13.766667, , 
seaport, MUGGIA, IT, 45.6, 13.766667, , 
seaport, KOPER, SI, 45.55, 13.733333, , 
seaport, PIRAN, SI, 45.533333, 13.566667, , 
seaport, UMAG, HR, 45.433333, 13.516667, , 
seaport, ROVINJ, HR, 45.083333, 13.633333, , 
seaport, PULA, HR, 44.883333, 13.8, , 
seaport, BRSICA, HR, 45.033333, 14.05, , 
seaport, RIJEKA LUKA, HR, 45.333333, 14.433333, , 
seaport, BAKAR, HR, 45.3, 14.533333, , 
seaport, OMISALJ, HR, 45.216667, 14.55, , 
seaport, SENJ, HR, 44.983333, 14.9, , 
seaport, ZADAR, HR, 44.116667, 15.216667, , 
seaport, SIBENIK, HR, 43.733333, 15.883333, , 
seaport, MOLFETTA, IT, 41.216667, 16.6, , 
seaport, SPLIT, HR, 43.5, 16.433333, , 
seaport, PLOCE, HR, 43.05, 17.433333, , 
seaport, TORRE ANNUNZIATA, IT, 40.75, 14.45, , 
seaport, CASTELLAMMARE DI STABIA, IT, 40.7, 14.483333, , 
seaport, SALERNO, IT, 40.666667, 14.75, , 
seaport, VIBO VALENTIA MARINA, IT, 38.716667, 16.133333, , 
seaport, REGGIO DI CALABRIA, IT, 38.116667, 15.65, , 
seaport, MESSINA, IT, 38.2, 15.566667, , 
seaport, MILAZZO, IT, 38.216667, 15.25, , 
seaport, GIOIA TAURO, IT, 38.416667, 15.9, , 
seaport, PORTO DI PALERMO, IT, 38.133333, 13.366667, , 
seaport, TRAPANI, IT, 38.016667, 12.5, , 
seaport, MARSALA, IT, 37.783333, 12.433333, , 
seaport, MAZARA DEL VALLO, IT, 37.65, 12.583333, , 
seaport, PORTO EMPEDOCLE, IT, 37.283333, 13.533333, , 
seaport, LICATA, IT, 37.1, 13.933333, , 
seaport, GELA, IT, 37.066667, 14.25, , 
seaport, POZZALLO, IT, 36.716667, 14.85, , 
seaport, SIRACUSA, IT, 37.05, 15.283333, , 
seaport, AUGUSTA, IT, 37.216667, 15.233333, , 
seaport, CATANIA, IT, 37.5, 15.1, , 
seaport, LIPARI, IT, 38.483333, 14.966667, , 
seaport, VALLETTA HARBORS, MT, 35.9, 14.516667, , 
seaport, MARSAXLOKK, MT, 35.816667, 14.55, , 
seaport, CROTONE, IT, 39.083333, 17.133333, , 
seaport, TARANTO, IT, 40.466667, 17.2, , 
seaport, GALLIPOLI, IT, 40.05, 17.983333, , 
seaport, OTRANTO, IT, 40.15, 18.5, , 
seaport, MONOPOLI, IT, 40.95, 17.3, , 
seaport, BARI, IT, 41.133333, 16.866667, , 
seaport, PORTO DI ORISTANO, IT, 39.866667, 8.55, , 
seaport, PORTO TORRES, IT, 40.833333, 8.4, , 
seaport, SAN REMO, IT, 43.816667, 7.783333, , 
seaport, IMPERIA, IT, 43.883333, 8.033333, , 
seaport, RADA DI VADO, IT, 44.266667, 8.433333, , 
seaport, SAVONA, IT, 44.316667, 8.5, , 
seaport, GENOVA, IT, 44.4, 8.933333, , 
seaport, LA SPEZIA, IT, 44.1, 9.833333, , 
seaport, MARINA DI CARRARA, IT, 44.033333, 10.033333, , 
seaport, LIVORNO, IT, 43.55, 10.316667, , 
seaport, VADA, IT, 43.35, 10.45, , 
seaport, PORTOVECCHIO DI PIOMBINO, IT, 42.933333, 10.55, , 
seaport, PORTO SANTO STEFANO, IT, 42.433333, 11.116667, , 
seaport, CIVITAVECCHIA, IT, 42.1, 11.783333, , 
seaport, FIUMICINO, IT, 41.766667, 12.233333, , 
seaport, ANZIO, IT, 41.45, 12.633333, , 
seaport, GAETA, IT, 41.2, 13.583333, , 
seaport, POZZUOLI, IT, 40.816667, 14.116667, , 
seaport, BAGNOLI, IT, 40.816667, 14.166667, , 
seaport, NAPOLI, IT, 40.85, 14.266667, , 
seaport, CARLOFORTE, IT, 39.15, 8.316667, , 
seaport, PORTO VESME, IT, 39.2, 8.4, , 
seaport, PUERTO DE ALCUDIA, ES, 39.833333, 3.133333, , 
seaport, MAHON, ES, 39.883333, 4.266667, , 
seaport, ROSAS, ES, 42.266667, 3.183333, , 
seaport, PORT-VENDRES, FR, 42.516667, 3.116667, , 
seaport, PORT-LA-NOUVELLE, FR, 43.016667, 3.066667, , 
seaport, SETE, FR, 43.4, 3.7, , 
seaport, PORT SAINT LOUIS DU RHONE, FR, 43.383333, 4.816667, , 
seaport, FOS, FR, 43.416667, 4.883333, , 
seaport, PORT-DE-BOUC, FR, 43.4, 4.983333, , 
seaport, MARSEILLE, FR, 43.316667, 5.366667, , 
seaport, SAINT-TROPEZ, FR, 43.266667, 6.633333, , 
seaport, SAINT-RAPHAEL, FR, 43.416667, 6.766667, , 
seaport, CANNES, FR, 43.55, 7.016667, , 
seaport, ANTIBES, FR, 43.583333, 7.133333, , 
seaport, NICE, FR, 43.7, 7.283333, , 
seaport, VILLEFRANCHE, FR, 43.7, 7.316667, , 
seaport, MONACO, MC, 43.733333, 7.416667, , 
seaport, BASTIA, FR, 42.7, 9.45, , 
seaport, BONIFACIO, FR, 41.383333, 9.166667, , 
seaport, PORT DE PROPRIANO, FR, 41.683333, 8.9, , 
seaport, PORT D' AJACCIO, FR, 41.916667, 8.75, , 
seaport, CALVI, FR, 42.566667, 8.75, , 
seaport, L'ILE ROUSSE, FR, 42.633333, 8.933333, , 
seaport, LA MADDALENA, IT, 41.2, 9.416667, , 
seaport, OLBIA, IT, 40.916667, 9.5, , 
seaport, ARBATAX, IT, 39.933333, 9.7, , 
seaport, CAGLIARI, IT, 39.216667, 9.116667, , 
seaport, SARROCH OIL TERMINAL, IT, 39.083333, 9.033333, , 
seaport, PALMA DE MALLORCA, ES, 39.566667, 2.633333, , 
seaport, PORTO PONTE ROMANO, IT, 39.05, 8.466667, , 
seaport, SANTA CRUZ DE LA PALMA, ES, 28.683333, -17.75, , 
seaport, SANTA CRUZ DE TENERIFE, ES, 28.466667, -16.233333, , 
seaport, LAS PALMAS, ES, 28.15, -15.416667, , 
seaport, PUERTO DEL ROSARIO, ES, 28.5, -13.85, , 
seaport, ARRECIFE, ES, 28.95, -13.533333, , 
seaport, HUELVA, ES, 37.25, -6.95, , 
seaport, SEVILLA, ES, 37.366667, -6.0, , 
seaport, ROTA, ES, 36.616667, -6.333333, , 
seaport, CADIZ, ES, 36.533333, -6.3, , 
seaport, ALGECIRAS, ES, 36.133333, -5.433333, , 
seaport, EUROPA POINT, GI, 36.133333, -5.35, , 
seaport, MALAGA, ES, 36.716667, -4.416667, , 
seaport, MOTRIL, ES, 36.75, -3.516667, , 
seaport, ADRA, ES, 36.733333, -3.033333, , 
seaport, ALMERIA, ES, 36.833333, -2.466667, , 
seaport, PUERTO DE CARBONERAS, ES, 37.0, -1.883333, , 
seaport, AGUILAS, ES, 37.4, -1.566667, , 
seaport, HORNILLO, ES, 37.4, -1.55, , 
seaport, CARTAGENA, ES, 37.583333, -0.983333, , 
seaport, TORREVIEJA, ES, 37.966667, -0.683333, , 
seaport, ALICANTE, ES, 38.333333, -0.483333, , 
seaport, PUERTO DE GANDIA, ES, 39.0, -0.15, , 
seaport, VALENCIA, ES, 39.45, -0.316667, , 
seaport, SAGUNTO, ES, 39.65, -0.216667, , 
seaport, BURRIANA, ES, 39.883333, -0.05, , 
seaport, EL GRAO, ES, 39.966667, 0.016667, , 
seaport, TARRAGONA, ES, 41.1, 1.233333, , 
seaport, BARCELONA, ES, 41.35, 2.166667, , 
seaport, SAN FELIU DE GUIXOLS, ES, 41.783333, 3.033333, , 
seaport, PALAMOS, ES, 41.833333, 3.116667, , 
seaport, FUNCHAL, PT, 32.633333, -16.916667, , 
seaport, PUERTO DE PASAJES, ES, 43.333333, -1.933333, , 
seaport, BERMEO, ES, 43.416667, -2.716667, , 
seaport, PUERTO DE BILBAO, ES, 43.35, -3.05, , 
seaport, SANTANDER, ES, 43.466667, -3.783333, , 
seaport, GIJON, ES, 43.55, -5.666667, , 
seaport, AVILES, ES, 43.6, -5.933333, , 
seaport, RIBADEO, ES, 43.533333, -7.033333, , 
seaport, SAN CIPRIAN, ES, 43.7, -7.433333, , 
seaport, FERROL, ES, 43.483333, -8.233333, , 
seaport, LA CORUNA, ES, 43.366667, -8.4, , 
seaport, VILLAGARCIA DE AROSA, ES, 42.6, -8.766667, , 
seaport, MARIN, ES, 42.4, -8.7, , 
seaport, VIGO, ES, 42.233333, -8.716667, , 
seaport, VIANA DO CASTELO, PT, 41.7, -8.833333, , 
seaport, PORTO DE LEIXOES, PT, 41.183333, -8.7, , 
seaport, DOURO, PT, 41.15, -8.666667, , 
seaport, AVEIRO, PT, 40.65, -8.65, , 
seaport, FIGUEIRA DA FOZ, PT, 40.15, -8.85, , 
seaport, LISBOA, PT, 38.7, -9.166667, , 
seaport, SETUBAL, PT, 38.516667, -8.9, , 
seaport, SINES, PT, 37.95, -8.866667, , 
seaport, FARO, PT, 37.033333, -7.933333, , 
seaport, VILA REAL DE S ANTONIO, PT, 37.183333, -7.4, , 
seaport, BORDEAUX, FR, 44.866667, -0.566667, , 
seaport, SAINT HELIER HARBOUR, GB, 49.183333, -2.116667, , 
seaport, PAIMPOL, FR, 48.783333, -3.05, , 
seaport, RADE DE BREST, FR, 48.383333, -4.5, , 
seaport, CONCARNEAU, FR, 47.866667, -3.916667, , 
seaport, LORIENT, FR, 47.75, -3.35, , 
seaport, ST NAZAIRE, FR, 47.283333, -2.2, , 
seaport, DONGES, FR, 47.3, -2.066667, , 
seaport, NANTES, FR, 47.2, -1.566667, , 
seaport, LES SABLES D' OLONNE, FR, 46.5, -1.8, , 
seaport, LA PALLICE, FR, 46.166667, -1.216667, , 
seaport, LA ROCHELLE, FR, 46.15, -1.15, , 
seaport, ROCHEFORT, FR, 45.933333, -0.95, , 
seaport, TONNAY CHARENTE, FR, 45.933333, -0.9, , 
seaport, LE VERDON, FR, 45.55, -1.05, , 
seaport, PAUILLAC, FR, 45.2, -0.75, , 
seaport, BLAYE, FR, 45.133333, -0.666667, , 
seaport, AMBES, FR, 45.016667, -0.533333, , 
seaport, TEIGNMOUTH HARBOUR, GB, 50.55, -3.5, , 
seaport, BRIDPORT HARBOUR, GB, 50.716667, -2.766667, , 
seaport, POOLE HARBOUR, GB, 50.683333, -1.95, , 
seaport, SOUTHAMPTON, GB, 50.9, -1.4, , 
seaport, SHOREHAM HARBOUR, GB, 50.816667, -0.25, , 
seaport, DUNKERQUE PORT EST, FR, 51.05, 2.383333, , 
seaport, BOULOGNE-SUR-MER, FR, 50.733333, 1.6, , 
seaport, FECAMP, FR, 49.766667, 0.366667, , 
seaport, HONFLEUR, FR, 49.416667, 0.216667, , 
seaport, RADE DE CHERBOURG, FR, 49.65, -1.633333, , 
seaport, DARTMOUTH HARBOUR, GB, 50.35, -3.616667, , 
seaport, FISHGUARD, GB, 52.016667, -4.983333, , 
seaport, MILFORD HAVEN, GB, 51.716667, -5.033333, , 
seaport, SWANSEA, GB, 51.616667, -3.95, , 
seaport, NEATH, GB, 51.633333, -3.833333, , 
seaport, PORT TALBOT, GB, 51.583333, -3.816667, , 
seaport, BARRY, GB, 51.4, -3.266667, , 
seaport, CARDIFF, GB, 51.45, -3.166667, , 
seaport, NEWPORT, GB, 51.55, -2.983333, , 
seaport, SHARPNESS, GB, 51.716667, -2.483333, , 
seaport, AVONMOUTH, GB, 51.5, -2.716667, , 
seaport, BRISTOL, GB, 51.466667, -2.633333, , 
seaport, BRIDGWATER, GB, 51.133333, -3.0, , 
seaport, WATCHET HARBOR, GB, 51.183333, -3.333333, , 
seaport, BIDEFORD, GB, 51.033333, -4.2, , 
seaport, PADSTOW, GB, 50.55, -4.933333, , 
seaport, HAYLE, GB, 50.183333, -5.416667, , 
seaport, NEWLYN, GB, 50.1, -5.55, , 
seaport, FALMOUTH HARBOUR, GB, 50.15, -5.066667, , 
seaport, CHARLESTOWN, GB, 50.333333, -4.75, , 
seaport, PAR, GB, 50.35, -4.7, , 
seaport, HOLYHEAD, GB, 53.316667, -4.633333, , 
seaport, CAERNARVON, GB, 53.15, -4.266667, , 
seaport, SLIGO, IE, 54.266667, -8.466667, , 
seaport, WESTPORT, IE, 53.8, -9.533333, , 
seaport, GALWAY, IE, 53.266667, -9.05, , 
seaport, LIMERICK, IE, 52.633333, -8.616667, , 
seaport, FOYNES, IE, 52.616667, -9.116667, , 
seaport, TARBERT, IE, 52.583333, -9.366667, , 
seaport, FENIT, IE, 52.266667, -9.866667, , 
seaport, BANTRY, IE, 51.683333, -9.45, , 
seaport, COBH, IE, 51.85, -8.3, , 
seaport, CORK, IE, 51.85, -8.266667, , 
seaport, WATERFORD, IE, 52.266667, -7.116667, , 
seaport, ROSSLARE, IE, 52.25, -6.333333, , 
seaport, DUBLIN, IE, 53.35, -6.25, , 
seaport, GREENORE, IE, 54.033333, -6.133333, , 
seaport, SILLOTH, GB, 54.866667, -3.4, , 
seaport, WORKINGTON, GB, 54.566667, -3.633333, , 
seaport, BARROW IN FURNESS, GB, 54.116667, -3.233333, , 
seaport, HEYSHAM, GB, 54.033333, -2.916667, , 
seaport, FLEETWOOD, GB, 53.916667, -3.016667, , 
seaport, LIVERPOOL, GB, 53.416667, -3.0, , 
seaport, MANCHESTER, GB, 53.483333, -2.266667, , 
seaport, RATHMULLAN, IE, 55.1, -7.533333, , 
seaport, KILLYBEGS, IE, 54.633333, -8.45, , 
seaport, MALLAIG, GB, 57.0, -5.816667, , 
seaport, TOBERMORY, GB, 56.616667, -6.066667, , 
seaport, CRAIGNURE, GB, 56.466667, -5.7, , 
seaport, CORPACH, GB, 56.85, -5.116667, , 
seaport, OBAN, GB, 56.416667, -5.466667, , 
seaport, PORT ELLEN, GB, 55.633333, -6.2, , 
seaport, CRINAN (CANAL), GB, 56.083333, -5.566667, , 
seaport, CAMPBELTOWN, GB, 55.433333, -5.6, , 
seaport, LAMLASH HARBOR, GB, 55.533333, -5.116667, , 
seaport, ARDRISHAIG, GB, 56.016667, -5.45, , 
seaport, ROTHESAY HARBOR, GB, 55.833333, -5.05, , 
seaport, GREENOCK, GB, 55.95, -4.75, , 
seaport, FINNART OIL TERMINAL, GB, 56.116667, -4.833333, , 
seaport, BOWLING, GB, 55.933333, -4.483333, , 
seaport, OLD KILPATRICK, GB, 55.916667, -4.466667, , 
seaport, ROTHESAY DOCK, GB, 55.9, -4.4, , 
seaport, RENFREW, GB, 55.883333, -4.383333, , 
seaport, GLASGOW, GB, 55.866667, -4.283333, , 
seaport, LARGS, GB, 55.8, -4.866667, , 
seaport, HUNTERSTON, GB, 55.75, -4.883333, , 
seaport, MILLPORT, GB, 55.75, -4.916667, , 
seaport, ARDROSSAN, GB, 55.65, -4.816667, , 
seaport, TROON, GB, 55.55, -4.683333, , 
seaport, AYR, GB, 55.466667, -4.633333, , 
seaport, STRANRAER, GB, 54.9, -5.033333, , 
seaport, DOUGLAS, GB, 54.15, -4.466667, , 
seaport, RAMSEY, GB, 54.316667, -4.366667, , 
seaport, ARDGLASS, GB, 54.266667, -5.616667, , 
seaport, BELFAST, GB, 54.616667, -5.9, , 
seaport, LARNE, GB, 54.85, -5.8, , 
seaport, COLERAINE, GB, 55.133333, -6.666667, , 
seaport, LONDONDERRY, GB, 55.0, -7.316667, , 
seaport, ORNSAY, GB, 57.15, -5.8, , 
seaport, BUCKIE HARBOR, GB, 57.683333, -2.966667, , 
seaport, LOSSIEMOUTH, GB, 57.716667, -3.283333, , 
seaport, BURGHEAD, GB, 57.7, -3.5, , 
seaport, INVERNESS, GB, 57.483333, -4.233333, , 
seaport, CROMARTY, GB, 57.683333, -4.033333, , 
seaport, INVERGORDON, GB, 57.683333, -4.166667, , 
seaport, PORTMAHOMACK HARBOR, GB, 57.833333, -3.833333, , 
seaport, HELMSDALE HARBOR, GB, 58.116667, -3.65, , 
seaport, WICK, GB, 58.433333, -3.083333, , 
seaport, PIEROWALL, GB, 59.3, -2.983333, , 
seaport, KETTLETOFT, GB, 59.233333, -2.6, , 
seaport, WHITEHALL, GB, 59.133333, -2.6, , 
seaport, KIRKWALL, GB, 58.983333, -2.966667, , 
seaport, STROMNESS, GB, 58.966667, -3.3, , 
seaport, SOUTH NESS, GB, 58.8, -3.2, , 
seaport, ST MARGARETS HOPE, GB, 58.833333, -2.95, , 
seaport, LYNESS, GB, 58.833333, -3.2, , 
seaport, SCAPA BAY, GB, 58.95, -2.983333, , 
seaport, SCALLOWAY, GB, 60.133333, -1.283333, , 
seaport, LERWICK, GB, 60.15, -1.15, , 
seaport, SULLOM VOE, GB, 60.466667, -1.3, , 
seaport, TVOROYRI, FO, 61.55, -6.8, , 
seaport, TORSHAVN, FO, 62.0, -6.75, , 
seaport, KONGSHAVN, FO, 62.116667, -6.733333, , 
seaport, VESTMANNA, FO, 62.15, -7.166667, , 
seaport, SORVAGUR, FO, 62.083333, -7.25, , 
seaport, FUGLAFJORDUR, FO, 62.25, -6.8, , 
seaport, KLAKSVIK, FO, 62.233333, -6.583333, , 
seaport, SCRABSTER HARBOR, GB, 58.616667, -3.55, , 
seaport, ULLAPOOL, GB, 57.9, -5.15, , 
seaport, AULTBEA, GB, 57.833333, -5.583333, , 
seaport, GAIRLOCH, GB, 57.716667, -5.683333, , 
seaport, PLOCKTON, GB, 57.333333, -5.65, , 
seaport, KYLE OF LOCHALSH, GB, 57.283333, -5.716667, , 
seaport, KYLEAKIN, GB, 57.266667, -5.733333, , 
seaport, BROADFORD BAY, GB, 57.25, -5.883333, , 
seaport, PORTREE HARBOR, GB, 57.416667, -6.2, , 
seaport, UIG, GB, 57.583333, -6.35, , 
seaport, LOCHMADDY, GB, 57.6, -7.166667, , 
seaport, CASTLE BAY, GB, 56.95, -7.483333, , 
seaport, LOCHBOISDALE, GB, 57.15, -7.3, , 
seaport, STORNOWAY HARBOR, GB, 58.183333, -6.366667, , 
seaport, TARBERT, GB, 57.9, -6.816667, , 
seaport, MACDUFF, GB, 57.666667, -2.5, , 
seaport, SEAHAM, GB, 54.833333, -1.316667, , 
seaport, SUNDERLAND, GB, 54.916667, -1.366667, , 
seaport, TYNEMOUTH, GB, 55.0, -1.4, , 
seaport, BLYTH, GB, 55.116667, -1.5, , 
seaport, WARKWORTH HARBOUR, GB, 55.333333, -1.583333, , 
seaport, BERWICK-UPON-TWEED, GB, 55.766667, -2.0, , 
seaport, EYEMOUTH, GB, 55.866667, -2.083333, , 
seaport, DUNBAR, GB, 56.0, -2.516667, , 
seaport, LEITH, GB, 55.983333, -3.183333, , 
seaport, GRANTON, GB, 55.983333, -3.216667, , 
seaport, BRAEFOOT BAY TERMINAL, GB, 56.033333, -3.316667, , 
seaport, HOUND POINT TERMINAL, GB, 56.0, -3.366667, , 
seaport, ROSYTH, GB, 56.016667, -3.433333, , 
seaport, GRANGEMOUTH, GB, 56.016667, -3.716667, , 
seaport, BURNTISLAND, GB, 56.05, -3.233333, , 
seaport, METHIL, GB, 56.183333, -3.0, , 
seaport, DUNDEE, GB, 56.466667, -2.95, , 
seaport, PERTH, GB, 56.4, -3.45, , 
seaport, MONTROSE, GB, 56.7, -2.466667, , 
seaport, ABERDEEN, GB, 57.15, -2.083333, , 
seaport, PETERHEAD, GB, 57.5, -1.783333, , 
seaport, FRASERBURGH HARBOR, GB, 57.683333, -2.0, , 
seaport, TEESPORT, GB, 54.65, -1.133333, , 
seaport, HARTLEPOOL, GB, 54.7, -1.183333, , 
seaport, DORDRECHT, NL, 51.816667, 4.65, , 
seaport, VLISSINGEN, NL, 51.45, 3.6, , 
seaport, TERNEUZEN, NL, 51.35, 3.816667, , 
seaport, ANTWERPEN, BE, 51.216667, 4.4, , 
seaport, BRUXELLES, BE, 50.866667, 4.35, , 
seaport, GHENT, BE, 51.066667, 3.733333, , 
seaport, ZEEBRUGGE, BE, 51.333333, 3.2, , 
seaport, BRUGES, BE, 51.233333, 3.216667, , 
seaport, OOSTENDE, BE, 51.233333, 2.916667, , 
seaport, NIEUWPOORT, BE, 51.133333, 2.75, , 
seaport, WHITSTABLE, GB, 51.366667, 1.033333, , 
seaport, SHEERNESS, GB, 51.45, 0.75, , 
seaport, THAMESPORT, GB, 51.433333, 0.7, , 
seaport, CHATHAM DOCKS, GB, 51.4, 0.55, , 
seaport, GRAVESEND, GB, 51.45, 0.366667, , 
seaport, LONDON, GB, 51.5, -0.083333, , 
seaport, COLCHESTER, GB, 51.883333, 0.916667, , 
seaport, HARWICH, GB, 51.95, 1.283333, , 
seaport, IPSWICH, GB, 52.05, 1.166667, , 
seaport, LOWESTOFT, GB, 52.483333, 1.75, , 
seaport, GREAT YARMOUTH, GB, 52.616667, 1.733333, , 
seaport, KING'S LYNN, GB, 52.75, 0.4, , 
seaport, BOSTON, GB, 52.966667, -0.016667, , 
seaport, GRIMSBY, GB, 53.583333, -0.066667, , 
seaport, IMMINGHAM, GB, 53.633333, -0.2, , 
seaport, KINGSTON UPON HULL, GB, 53.75, -0.283333, , 
seaport, GOOLE, GB, 53.7, -0.833333, , 
seaport, BRIDLINGTON, GB, 54.083333, -0.183333, , 
seaport, SCARBOROUGH, GB, 54.283333, -0.4, , 
seaport, WHITBY, GB, 54.483333, -0.616667, , 
seaport, ROTTERDAM, NL, 51.9, 4.483333, , 
seaport, RINGKOBING, DK, 56.083333, 8.25, , 
seaport, ESBJERG, DK, 55.466667, 8.45, , 
seaport, HUSUM, DE, 54.483333, 9.05, , 
seaport, BRUNSBUTTEL ELBAHAFEN, DE, 53.883333, 9.166667, , 
seaport, BRUNSBUTTEL CANAL TERMINALS, DE, 53.9, 9.15, , 
seaport, RENDSBURG, DE, 54.3, 9.683333, , 
seaport, GLUCKSTADT, DE, 53.783333, 9.416667, , 
seaport, HAMBURG, DE, 53.55, 9.933333, , 
seaport, CUXHAVEN, DE, 53.866667, 8.716667, , 
seaport, BREMERHAVEN, DE, 53.533333, 8.583333, , 
seaport, NORDENHAM, DE, 53.483333, 8.483333, , 
seaport, BRAKE, DE, 53.333333, 8.483333, , 
seaport, ELSFLETH, DE, 53.233333, 8.466667, , 
seaport, OLDENBURG, DE, 53.116667, 8.216667, , 
seaport, BREMEN, DE, 53.133333, 8.766667, , 
seaport, WILHELMSHAVEN, DE, 53.533333, 8.166667, , 
seaport, EMDEN, DE, 53.333333, 7.183333, , 
seaport, LEER, DE, 53.233333, 7.45, , 
seaport, PAPENBURG, DE, 53.1, 7.383333, , 
seaport, DELFZIJL, NL, 53.333333, 6.933333, , 
seaport, HARLINGEN, NL, 53.183333, 5.416667, , 
seaport, DEN HELDER, NL, 52.966667, 4.783333, , 
seaport, IJMUIDEN, NL, 52.466667, 4.583333, , 
seaport, ZAANDAM, NL, 52.433333, 4.833333, , 
seaport, AMSTERDAM, NL, 52.366667, 4.9, , 
seaport, SCHEVENINGEN, NL, 52.1, 4.266667, , 
seaport, HOEK VAN HOLLAND, NL, 51.95, 4.133333, , 
seaport, EUROPOORT, NL, 51.95, 4.116667, , 
seaport, MAASSLUIS, NL, 51.916667, 4.25, , 
seaport, VLAARDINGEN, NL, 51.9, 4.35, , 
seaport, SCHIEDAM, NL, 51.9, 4.4, , 
seaport, THYBORON, DK, 56.7, 8.216667, , 
seaport, SAKSKOBING, DK, 54.8, 11.633333, , 
seaport, BANDHOLM, DK, 54.833333, 11.5, , 
seaport, NAKSKOV, DK, 54.833333, 11.133333, , 
seaport, RODBY HAVN, DK, 54.65, 11.35, , 
seaport, NYSTED, DK, 54.666667, 11.733333, , 
seaport, RUDKOBING, DK, 54.95, 10.716667, , 
seaport, MARSTAL, DK, 54.916667, 10.333333, , 
seaport, AEROSKOBING, DK, 54.883333, 10.416667, , 
seaport, SVENDBORG, DK, 55.066667, 10.616667, , 
seaport, NYBORG, DK, 55.316667, 10.8, , 
seaport, ODENSE, DK, 55.416667, 10.383333, , 
seaport, MIDDELFART, DK, 55.5, 9.733333, , 
seaport, ASSENS, DK, 55.266667, 9.883333, , 
seaport, FABORG, DK, 55.1, 10.25, , 
seaport, SONDERBORG, DK, 54.916667, 9.783333, , 
seaport, AUGUSTENBORG, DK, 54.95, 9.866667, , 
seaport, ABENRA, DK, 55.05, 9.433333, , 
seaport, ENSTED, DK, 55.016667, 9.433333, , 
seaport, HADERSLEV, DK, 55.25, 9.5, , 
seaport, KOLDING, DK, 55.483333, 9.5, , 
seaport, FREDERICIA, DK, 55.566667, 9.766667, , 
seaport, VEJLE, DK, 55.716667, 9.55, , 
seaport, HORSENS, DK, 55.866667, 9.85, , 
seaport, ARHUS, DK, 56.15, 10.216667, , 
seaport, STUDSTRUP, DK, 56.25, 10.35, , 
seaport, GRENAA HAVN, DK, 56.416667, 10.933333, , 
seaport, RANDERS, DK, 56.466667, 10.05, , 
seaport, HADSUND, DK, 56.716667, 10.116667, , 
seaport, MARIAGER, DK, 56.65, 9.983333, , 
seaport, HOBRO, DK, 56.633333, 9.8, , 
seaport, HALS, DK, 56.983333, 10.316667, , 
seaport, ALBORG, DK, 57.05, 9.933333, , 
seaport, FREDERIKSHAVN, DK, 57.433333, 10.55, , 
seaport, SKAGEN HAVN, DK, 57.716667, 10.6, , 
seaport, HIRTSHALS, DK, 57.6, 9.966667, , 
seaport, HANSTHOLM, DK, 57.133333, 8.6, , 
seaport, NYKOBING (FALSTER), DK, 54.766667, 11.866667, , 
seaport, ROSTOCK, DE, 54.1, 12.133333, , 
seaport, WISMAR, DE, 53.9, 11.466667, , 
seaport, LUBECK-TRAVEMUNDE, DE, 53.966667, 10.883333, , 
seaport, LUBECK, DE, 53.883333, 10.7, , 
seaport, NEUSTADT, DE, 54.1, 10.816667, , 
seaport, HEILIGENHAFEN, DE, 54.366667, 10.983333, , 
seaport, KIEL, DE, 54.316667, 10.133333, , 
seaport, ECKERNFORDE, DE, 54.483333, 9.833333, , 
seaport, KAPPELN, DE, 54.666667, 9.933333, , 
seaport, FLENSBURG, DE, 54.8, 9.433333, , 
seaport, NEKSO, DK, 55.066667, 15.133333, , 
seaport, RONNE, DK, 55.1, 14.7, , 
seaport, HASLE, DK, 55.183333, 14.7, , 
seaport, CHRISTIANSO HARBOR, DK, 55.316667, 15.183333, , 
seaport, FAKSE LADEPLADS HAVN, DK, 55.216667, 12.166667, , 
seaport, KOGE, DK, 55.45, 12.2, , 
seaport, KOBENHAVN, DK, 55.7, 12.616667, , 
seaport, TUBORG, DK, 55.716667, 12.583333, , 
seaport, HELSINGOR, DK, 56.033333, 12.616667, , 
seaport, FREDERIKSVAERK, DK, 55.966667, 12.016667, , 
seaport, FREDERIKSSUND, DK, 55.833333, 12.05, , 
seaport, KYNDBYVAERKETS HAVN, DK, 55.816667, 11.883333, , 
seaport, HOLBAEK, DK, 55.716667, 11.716667, , 
seaport, KALUNDBORG, DK, 55.683333, 11.1, , 
seaport, KORSOR, DK, 55.333333, 11.133333, , 
seaport, SKAELSKOR, DK, 55.25, 11.3, , 
seaport, STIGSNAESVAERKET, DK, 55.2, 11.25, , 
seaport, NAESTVED, DK, 55.233333, 11.75, , 
seaport, VORDINGBORG, DK, 55.0, 11.9, , 
seaport, STUBBEKOBING, DK, 54.883333, 12.05, , 
seaport, STEGE, DK, 54.983333, 12.283333, , 
seaport, STRALSUND, DE, 54.316667, 13.1, , 
seaport, HELSINKI, FI, 60.166667, 24.966667, , 
seaport, PORVOO, FI, 60.3, 25.633333, , 
seaport, LOVIISA, FI, 60.45, 26.233333, , 
seaport, KOTKA, FI, 60.466667, 26.966667, , 
seaport, HAMINA, FI, 60.566667, 27.2, , 
seaport, VYBORG, RU, 60.716667, 28.75, , 
seaport, GAVAN VYSOTSK, RU, 60.616667, 28.566667, , 
seaport, PRIMORSK, RU, 60.366667, 28.633333, , 
seaport, SANKT-PETERBURG, RU, 59.933333, 30.3, , 
seaport, LOMONOSOV, RU, 59.916667, 29.766667, , 
seaport, KRONSHTADT, RU, 59.983333, 29.783333, , 
seaport, REKA LUGA, RU, 59.666667, 28.316667, , 
seaport, KUNDA, EE, 59.533333, 26.533333, , 
seaport, TALLINN, EE, 59.45, 24.766667, , 
seaport, PALDISKI, EE, 59.35, 24.033333, , 
seaport, OSMUSSAAR, EE, 59.3, 23.366667, , 
seaport, PARNU, EE, 58.383333, 24.5, , 
seaport, RIGA, LV, 56.95, 24.1, , 
seaport, VENTSPILS, LV, 57.4, 21.533333, , 
seaport, LIEPAJA, LV, 56.516667, 21.016667, , 
seaport, KLAIPEDA, LT, 55.716667, 21.116667, , 
seaport, BALTIYSK, RU, 54.633333, 19.9, , 
seaport, KALININGRAD, RU, 54.7, 20.483333, , 
seaport, GDANSK, PL, 54.35, 18.666667, , 
seaport, PORT POLNOCHNY, PL, 54.4, 18.716667, , 
seaport, NOWY PORT, PL, 54.416667, 18.666667, , 
seaport, GDYNIA, PL, 54.533333, 18.55, , 
seaport, USTKA, PL, 54.583333, 16.85, , 
seaport, DARLOWO, PL, 54.433333, 16.416667, , 
seaport, KOLOBRZEG, PL, 54.216667, 15.55, , 
seaport, SWINOUJSCIE, PL, 53.916667, 14.266667, , 
seaport, SZCZECIN, PL, 53.416667, 14.55, , 
seaport, WOLGAST, DE, 54.05, 13.783333, , 
seaport, SASSNITZ, DE, 54.516667, 13.65, , 
seaport, EKENAS, FI, 59.983333, 23.433333, , 
seaport, JUSSARO, FI, 59.833333, 23.566667, , 
seaport, PORKKALA, FI, 60.083333, 24.383333, , 
seaport, KARLSBORG, SE, 65.8, 23.283333, , 
seaport, SANDVIK, SE, 65.733333, 23.766667, , 
seaport, TORINA, FI, 65.766667, 24.166667, , 
seaport, KEMI, FI, 65.733333, 24.566667, , 
seaport, OULU, FI, 65.016667, 25.4, , 
seaport, RAAHE, FI, 64.683333, 24.416667, , 
seaport, HIMANKA, FI, 64.0, 23.65, , 
seaport, KOKKOLA, FI, 63.85, 23.016667, , 
seaport, JAKOBSTAD, FI, 63.683333, 22.666667, , 
seaport, NYKARLEBY, FI, 63.516667, 22.533333, , 
seaport, KANTLAX, FI, 63.416667, 22.283333, , 
seaport, HELLNAS, FI, 63.283333, 22.233333, , 
seaport, VAASA, FI, 63.1, 21.583333, , 
seaport, KASKINEN, FI, 62.383333, 21.233333, , 
seaport, KRISTINESTAD, FI, 62.283333, 21.4, , 
seaport, MANTYLUOTO, FI, 61.6, 21.483333, , 
seaport, TAHKOLUOTO, FI, 61.633333, 21.4, , 
seaport, RAUMA, FI, 61.133333, 21.5, , 
seaport, UUSIKAUPUNKI, FI, 60.8, 21.4, , 
seaport, NAANTALI, FI, 60.466667, 22.016667, , 
seaport, TURKU, FI, 60.45, 22.233333, , 
seaport, UDANG OILFIELD, ID, 4.033333, 106.483333, , 
seaport, SIGNILSKAR, FI, 60.2, 19.333333, , 
seaport, WIDURI MARINE TERMINAL, ID, -4.666667, 106.65, , 
seaport, MARIEHAMN, FI, 60.1, 19.916667, , 
seaport, KUMUL, PG, -8.1, 144.566667, , 
seaport, HANKO, FI, 59.816667, 22.95, , 
seaport, TOREHAMN, SE, 65.9, 22.65, , 
seaport, TARAKOHE, NZ, -40.85, 172.9, , 
seaport, KOPMANHOLMEN, SE, 63.166667, 18.583333, , 
seaport, BAKAPIT, MY, 4.95, 118.583333, , 
seaport, ORNSKOLDSVIK, SE, 63.283333, 18.716667, , 
seaport, HUSUM, SE, 63.333333, 19.15, , 
seaport, RUNDVIK, SE, 63.533333, 19.45, , 
seaport, NORDMALING, SE, 63.566667, 19.483333, , 
seaport, BINTANGOR, MY, 2.166667, 111.633333, , 
seaport, MOSTYN, MY, 4.683333, 118.25, , 
seaport, PORT LANGKAWI, MY, 6.433333, 99.766667, , 
seaport, KEMAMAN HARBOR, MY, 4.25, 103.466667, , 
seaport, UMEA HAMN, SE, 63.7, 20.35, , 
seaport, TG. MANI, MY, 2.15, 111.35, , 
seaport, GUMBODAHAMN, SE, 64.233333, 21.1, , 
seaport, TANJUNG PELEPAS, MY, 1.35, 103.55, , 
seaport, BONGKOT TERMINAL, TH, 8.05, 102.333333, , 
seaport, VUNG TAU, VN, 10.35, 107.066667, , 
seaport, SKELLEFTEHAMN, SE, 64.683333, 21.233333, , 
seaport, KAGEHAMN, SE, 64.833333, 21.033333, , 
seaport, PATTANI, TH, 6.95, 101.3, , 
seaport, TANTAWAN MARINE TERMINAL, TH, 10.083333, 101.416667, , 
seaport, BRANNFORS, SE, 65.016667, 21.383333, , 
seaport, BANG SAPHAN, TH, 11.183333, 99.6, , 
seaport, KHANOM, TH, 9.2, 99.9, , 
seaport, LAEM CHABANG, TH, 13.083333, 100.883333, , 
seaport, PITEA, SE, 65.316667, 21.483333, , 
seaport, ERAWAN TERMINAL, TH, 9.1, 101.35, , 
seaport, BENCHAMAS TERMINAL, TH, 10.516667, 101.25, , 
seaport, LULEA, SE, 65.583333, 22.166667, , 
seaport, SI RACHA, TH, 13.166667, 100.916667, , 
seaport, MAP TA PHUT, TH, 12.666667, 101.166667, , 
seaport, GAVLE, SE, 60.683333, 17.166667, , 
seaport, NORRSUNDET, SE, 60.933333, 17.166667, , 
seaport, SONGKHLA HARBOR, TH, 7.216667, 100.583333, , 
seaport, DAI HANG, VN, 8.483333, 108.683333, , 
seaport, VALLVIK, SE, 61.183333, 17.166667, , 
seaport, MUI VUNG TAU, VN, 10.316667, 107.066667, , 
seaport, SODERHAMN, SE, 61.3, 17.083333, , 
seaport, PHU MY, VN, 10.583333, 107.033333, , 
seaport, GINGOOG, PH, 8.833333, 125.1, , 
seaport, IGGESUND, SE, 61.65, 17.083333, , 
seaport, ISABEL, PH, 10.916667, 124.433333, , 
seaport, HUDIKSVALL, SE, 61.733333, 17.116667, , 
seaport, MASAO, PH, 9.0, 125.416667, , 
seaport, STOCKA, SE, 61.9, 17.35, , 
seaport, TANAUAN, PH, 11.1, 125.016667, , 
seaport, SHAKHTERSK, RU, -49.166667, 142.05, , 
seaport, KAVKAZ OIL TERMINAL, RU, 45.333333, 36.65, , 
seaport, ZARUBINO, RU, 42.633333, 131.083333, , 
seaport, VITAZ MARINE TERMINAL, RU, 52.7, 143.55, , 
seaport, STOCKVIK, SE, 62.333333, 17.383333, , 
seaport, SUNDSVALL, SE, 62.383333, 17.35, , 
seaport, VIVSTAVARV, SE, 62.483333, 17.35, , 
seaport, SORAKER, SE, 62.5, 17.5, , 
seaport, HARNOSAND, SE, 62.633333, 17.933333, , 
seaport, ULVVIK, SE, 62.666667, 17.866667, , 
seaport, UTANSJO, SE, 62.766667, 17.933333, , 
seaport, GUSTAVSVIK, SE, 62.833333, 17.883333, , 
seaport, LUNDE, SE, 62.883333, 17.883333, , 
seaport, KRAMFORS, SE, 62.933333, 17.8, , 
seaport, KARSKAR, SE, 60.683333, 17.266667, , 
seaport, VAJA, SE, 62.983333, 17.716667, , 
seaport, BOLLSTABRUK, SE, 63.0, 17.7, , 
seaport, DEGERHAMN, SE, 56.35, 16.416667, , 
seaport, RONEHAMN, SE, 57.116667, 18.5, , 
seaport, SLITE, SE, 57.7, 18.816667, , 
seaport, FAROSUND, SE, 57.916667, 19.05, , 
seaport, STORUGNS, SE, 57.833333, 18.8, , 
seaport, VISBY, SE, 57.633333, 18.283333, , 
seaport, KLINTEHAMN, SE, 57.383333, 18.2, , 
seaport, VERKEBACK, SE, 57.733333, 16.533333, , 
seaport, VASTERVIK, SE, 57.766667, 16.65, , 
seaport, NORRKOPING, SE, 58.583333, 16.2, , 
seaport, OXELOSUND, SE, 58.666667, 17.116667, , 
seaport, NYKOPING, SE, 58.75, 17.016667, , 
seaport, SODERTALJE, SE, 59.183333, 17.65, , 
seaport, NYNASHAMN, SE, 58.9, 17.966667, , 
seaport, GUSTAVSBERG, SE, 59.316667, 18.383333, , 
seaport, SANDHAMN, SE, 59.283333, 18.916667, , 
seaport, STOCKHOLM, SE, 59.333333, 18.05, , 
seaport, VASTERAS, SE, 59.616667, 16.55, , 
seaport, GRISSLEHAMN, SE, 60.1, 18.816667, , 
seaport, HALLSTAVIK, SE, 60.05, 18.583333, , 
seaport, HARGSHAMN, SE, 60.183333, 18.45, , 
seaport, SKUTSKAR, SE, 60.65, 17.4, , 
seaport, OSKARSHAMN, SE, 57.266667, 16.45, , 
seaport, FIGEHOLM, SE, 57.366667, 16.5, , 
seaport, MOSS, NO, 59.45, 10.666667, , 
seaport, SARPSBORG, NO, 59.266667, 11.1, , 
seaport, FREDRIKSTAD, NO, 59.2, 10.95, , 
seaport, HALDEN, NO, 59.116667, 11.383333, , 
seaport, STROMSTAD, SE, 58.933333, 11.166667, , 
seaport, GREBBESTAD, SE, 58.683333, 11.266667, , 
seaport, FJALLBACKA, SE, 58.6, 11.283333, , 
seaport, BOVALLSTRAND, SE, 58.483333, 11.333333, , 
seaport, HUNNEBOSTRAND, SE, 58.433333, 11.3, , 
seaport, LYSEKIL, SE, 58.266667, 11.433333, , 
seaport, UDDEVALLA, SE, 58.35, 11.916667, , 
seaport, MARSTRAND, SE, 57.883333, 11.583333, , 
seaport, GOTEBORG, SE, 57.7, 11.966667, , 
seaport, VARBERG, SE, 57.116667, 12.25, , 
seaport, FALKENBERG, SE, 56.9, 12.5, , 
seaport, HALMSTAD, SE, 56.666667, 12.866667, , 
seaport, HOGANAS, SE, 56.2, 12.55, , 
seaport, HELSINGBORG, SE, 56.05, 12.7, , 
seaport, LANDSKRONA, SE, 55.866667, 12.833333, , 
seaport, MALMO, SE, 55.616667, 13.0, , 
seaport, LIMHAMN, SE, 55.583333, 12.933333, , 
seaport, TRELLEBORG, SE, 55.366667, 13.15, , 
seaport, YSTAD, SE, 55.433333, 13.833333, , 
seaport, SIMRISHAMN, SE, 55.55, 14.366667, , 
seaport, AHUS, SE, 55.933333, 14.316667, , 
seaport, SOLVESBORG, SE, 56.05, 14.583333, , 
seaport, KARLSHAMN, SE, 56.166667, 14.866667, , 
seaport, RONNEBY, SE, 56.183333, 15.3, , 
seaport, KARLSKRONA, SE, 56.166667, 15.6, , 
seaport, BERGKVARA, SE, 56.383333, 16.1, , 
seaport, KALMAR, SE, 56.666667, 16.366667, , 
seaport, STORA JATTERSON, SE, 57.1, 16.566667, , 
seaport, TOFTE, NO, 59.55, 10.566667, , 
seaport, KAMBO, NO, 59.466667, 10.683333, , 
seaport, HUSNES, NO, 59.866667, 5.766667, , 
seaport, HAUGESUND, NO, 59.416667, 5.266667, , 
seaport, KOPERVIK, NO, 59.283333, 5.316667, , 
seaport, KARSTO, NO, 59.266667, 5.516667, , 
seaport, ESPEVAER, NO, 59.583333, 5.15, , 
seaport, SAUDA, NO, 59.65, 6.35, , 
seaport, AKRAHAMN, NO, 59.266667, 5.183333, , 
seaport, SANDNES, NO, 58.85, 5.75, , 
seaport, STAVANGER, NO, 58.966667, 5.75, , 
seaport, SKUDENESHAVN, NO, 59.15, 5.266667, , 
seaport, TANANGER, NO, 58.933333, 5.583333, , 
seaport, EGERSUND, NO, 58.45, 6.0, , 
seaport, REKEFJORD, NO, 58.333333, 6.266667, , 
seaport, KIRKEHAMN, NO, 58.233333, 6.533333, , 
seaport, FLEKKEFJORDEN, NO, 58.3, 6.666667, , 
seaport, FARSUND, NO, 58.083333, 6.816667, , 
seaport, STUSVIK, NO, 58.0, 7.033333, , 
seaport, MANDAL, NO, 58.016667, 7.466667, , 
seaport, KRISTIANSAND, NO, 58.15, 8.0, , 
seaport, ARENDAL, NO, 58.466667, 8.766667, , 
seaport, TVEDESTRAND, NO, 58.616667, 8.933333, , 
seaport, RISOR, NO, 58.716667, 9.233333, , 
seaport, KRAGERO, NO, 58.866667, 9.416667, , 
seaport, BREVIK, NO, 59.066667, 9.7, , 
seaport, PORSGRUNN, NO, 59.15, 9.666667, , 
seaport, SKIEN, NO, 59.2, 9.6, , 
seaport, LARVIK, NO, 59.05, 10.033333, , 
seaport, SANDEFJORDEN, NO, 59.116667, 10.233333, , 
seaport, TONSBERG, NO, 59.283333, 10.416667, , 
seaport, VALLOY, NO, 59.266667, 10.5, , 
seaport, SLAGENSTANGEN, NO, 59.316667, 10.516667, , 
seaport, HORTEN, NO, 59.416667, 10.5, , 
seaport, HOLMESTRAND, NO, 59.483333, 10.3, , 
seaport, SVELVIK, NO, 59.616667, 10.4, , 
seaport, DRAMMEN, NO, 59.733333, 10.25, , 
seaport, STORSTEILENE, NO, 59.816667, 10.6, , 
seaport, OSLO, NO, 59.916667, 10.75, , 
seaport, DROBAK, NO, 59.666667, 10.65, , 
seaport, MOSTERHAMN, NO, 59.7, 5.4, , 
seaport, SAGVAG, NO, 59.766667, 5.383333, , 
seaport, LEIRVIK, NO, 59.783333, 5.5, , 
seaport, MOSJOEN, NO, 65.833333, 13.2, , 
seaport, TJOTTA, NO, 65.833333, 12.433333, , 
seaport, BRONNOYSUND, NO, 65.466667, 12.2, , 
seaport, BERG, NO, 65.366667, 12.2, , 
seaport, RORVIK, NO, 64.866667, 11.25, , 
seaport, SALSBRUKET, NO, 64.8, 11.866667, , 
seaport, NAMSOS, NO, 64.466667, 11.5, , 
seaport, MALM, NO, 64.066667, 11.233333, , 
seaport, STEINKJER, NO, 64.016667, 11.5, , 
seaport, DJUPVIKEN, NO, 63.783333, 11.45, , 
seaport, LEVANGER, NO, 63.75, 11.3, , 
seaport, LANGSTEIN, NO, 63.533333, 10.9, , 
seaport, MURUVIK, NO, 63.433333, 10.85, , 
seaport, HOMMELVIK, NO, 63.416667, 10.8, , 
seaport, TRONDHEIM, NO, 63.433333, 10.4, , 
seaport, THAMSHAMM, NO, 63.316667, 9.883333, , 
seaport, KRISTIANSUND, NO, 63.116667, 7.733333, , 
seaport, SUNNDALSORA, NO, 62.683333, 8.55, , 
seaport, BUD, NO, 62.9, 6.916667, , 
seaport, HAROYSUND, NO, 62.9, 6.966667, , 
seaport, MOLDE, NO, 62.733333, 7.166667, , 
seaport, ANDALSNES, NO, 62.566667, 7.683333, , 
seaport, HAREID, NO, 62.366667, 6.033333, , 
seaport, MOLDTUSTRANDA, NO, 62.3, 5.65, , 
seaport, ORSTAV, NO, 62.2, 6.133333, , 
seaport, ALESUND, NO, 62.466667, 6.166667, , 
seaport, MALOY, NO, 61.933333, 5.116667, , 
seaport, FLORO, NO, 61.6, 5.033333, , 
seaport, ARDALSTANGEN, NO, 61.233333, 7.716667, , 
seaport, MONGSTAD, NO, 60.816667, 5.033333, , 
seaport, VAKSDAL, NO, 60.483333, 5.733333, , 
seaport, BERGEN, NO, 60.4, 5.316667, , 
seaport, BRATTHOLMEN, NO, 60.35, 5.166667, , 
seaport, TRANNESET, NO, 60.416667, 5.016667, , 
seaport, STRANDVIK, NO, 60.166667, 5.666667, , 
seaport, NORHEIMSUND, NO, 60.366667, 6.15, , 
seaport, ODDA, NO, 60.083333, 6.55, , 
seaport, MELING, NO, 59.783333, 5.116667, , 
seaport, HEMNESBERGET, NO, 66.233333, 13.616667, , 
seaport, HAMMERFEST, NO, 70.666667, 23.666667, , 
seaport, SORVAER, NO, 70.633333, 21.983333, , 
seaport, BREDVIK, NO, 70.583333, 22.133333, , 
seaport, OKSFJORD, NO, 70.233333, 22.35, , 
seaport, ALTA, NO, 69.966667, 23.25, , 
seaport, TALVIK, NO, 70.05, 22.966667, , 
seaport, TROMSO, NO, 69.65, 18.966667, , 
seaport, GIBOSTAD, NO, 69.35, 18.083333, , 
seaport, FINNSNES, NO, 69.233333, 17.966667, , 
seaport, MEDBY, NO, 68.916667, 17.733333, , 
seaport, SJOVEGAN, NO, 68.883333, 17.833333, , 
seaport, HARSTAD, NO, 68.8, 16.55, , 
seaport, ANDENES, NO, 69.333333, 16.133333, , 
seaport, SORTLAND, NO, 68.7, 15.416667, , 
seaport, STOKKMARKNES, NO, 68.566667, 14.916667, , 
seaport, REINE, NO, 67.933333, 13.1, , 
seaport, BALLSTAD, NO, 68.066667, 13.7, , 
seaport, STAMSUND, NO, 68.116667, 13.85, , 
seaport, HENNINGSVAER, NO, 68.15, 14.216667, , 
seaport, SVOLVAER, NO, 68.233333, 14.583333, , 
seaport, SKROVA HAVN, NO, 68.166667, 14.666667, , 
seaport, BRETTESNES, NO, 68.233333, 14.85, , 
seaport, LODINGEN, NO, 68.416667, 16.0, , 
seaport, ULVIK, NO, 68.566667, 16.266667, , 
seaport, LILANDSGRUNNEN, NO, 68.483333, 16.883333, , 
seaport, NARVIK, NO, 68.433333, 17.416667, , 
seaport, LITLE BALLANGEN, NO, 68.333333, 16.85, , 
seaport, DRAG, NO, 68.05, 16.083333, , 
seaport, KORSNES, NO, 68.25, 16.066667, , 
seaport, TRANOY, NO, 68.183333, 15.666667, , 
seaport, KJERRINGOY, NO, 67.516667, 14.766667, , 
seaport, BODO, NO, 67.283333, 14.383333, , 
seaport, LAKSELV, NO, 67.366667, 15.6, , 
seaport, FAUSKE, NO, 67.25, 15.366667, , 
seaport, ROGNAN, NO, 67.1, 15.416667, , 
seaport, ORNES, NO, 66.866667, 13.716667, , 
seaport, GLOMFJORD, NO, 66.816667, 13.983333, , 
seaport, SANDNESSJOEN, NO, 66.016667, 12.633333, , 
seaport, MO INLET, NO, 66.316667, 14.133333, , 
seaport, KVALSUND, NO, 70.5, 23.983333, , 
seaport, PORT MOLLER, US, 55.983333, -160.566667, , 
seaport, PORT HEIDEN, US, 56.883333, -158.7, , 
seaport, PILOT POINT, US, 57.566667, -157.6, , 
seaport, UGASHIK, US, 57.533333, -157.416667, , 
seaport, EGEGIK, US, 58.2, -157.366667, , 
seaport, NAKNEK, US, 58.716667, -157.016667, , 
seaport, KOGGIUNG, US, 58.966667, -156.916667, , 
seaport, EKUK, US, 58.816667, -158.566667, , 
seaport, CLARKS POINT, US, 58.85, -158.55, , 
seaport, DILLINGHAM, US, 59.033333, -158.483333, , 
seaport, PLATINUM, US, 59.016667, -161.833333, , 
seaport, BETHEL, US, 60.816667, -161.716667, , 
seaport, NASH HARBOR, US, 60.2, -166.983333, , 
seaport, KWIGUK, US, 62.733333, -164.466667, , 
seaport, KOTLIK, US, 63.033333, -163.55, , 
seaport, HAMILTON, US, 62.9, -163.916667, , 
seaport, ST MICHAEL, US, 63.483333, -162.033333, , 
seaport, UNALAKLEET, US, 63.883333, -160.783333, , 
seaport, SOLOMON, US, 64.55, -164.4, , 
seaport, NOME, US, 64.5, -165.416667, , 
seaport, GRANTLEY HARBOR, US, 65.266667, -166.333333, , 
seaport, SAVOONGA, US, 63.683333, -170.4, , 
seaport, SHISHMAREF, US, 66.25, -166.083333, , 
seaport, DEERING, US, 66.083333, -162.733333, , 
seaport, KOTZEBUE, US, 66.916667, -162.583333, , 
seaport, WAINWRIGHT, US, 70.65, -160.0, , 
seaport, BARROW, US, 71.283333, -156.783333, , 
seaport, PRUDHOE BAY, US, 70.333333, -148.416667, , 
seaport, BERNARD HARBOR, US, 70.133333, -143.633333, , 
seaport, TUKTOYAKTUK, CA, 69.45, -133.0, , 
seaport, POLICE POINT, CA, 70.183333, -124.75, , 
seaport, PAULATUK, CA, 69.35, -124.083333, , 
seaport, PEARCE POINT, CA, 69.816667, -122.75, , 
seaport, TYSOE POINT, CA, 69.6, -120.75, , 
seaport, SACHS HARBOR, CA, 71.966667, -125.25, , 
seaport, CAPE YOUNG, CA, 68.933333, -116.933333, , 
seaport, BERNARD HARBOR, CA, 68.783333, -114.766667, , 
seaport, LADY FRANKLIN POINT, CA, 68.483333, -113.266667, , 
seaport, COPPERMINE, CA, 67.8, -115.05, , 
seaport, CAMBRIDGE BAY, CA, 69.116667, -105.066667, , 
seaport, RESOLUTE BAY, CA, 74.683333, -95.9, , 
seaport, BARENTSBURG, XR, 78.066667, 14.233333, , 
seaport, LONGYEARBYEN, XR, 78.2, 15.7, , 
seaport, NY ALESUND, XR, 78.916667, 11.95, , 
seaport, KIRKENES, NO, 69.733333, 30.05, , 
seaport, VADSO, NO, 70.066667, 29.75, , 
seaport, BATSFJORDEN, NO, 70.633333, 29.733333, , 
seaport, VARDO, NO, 70.366667, 31.116667, , 
seaport, BERLEVAG, NO, 70.866667, 29.1, , 
seaport, KJOLLEFJORDEN, NO, 70.95, 27.333333, , 
seaport, HONNINGSVAG, NO, 70.983333, 26.0, , 
seaport, MASSACRE BAY, US, 52.833333, 173.233333, , 
seaport, VILLAGE COVE, US, 57.133333, -170.266667, , 
seaport, SAN JUAN CANNERY, US, 60.05, -148.066667, , 
seaport, LATOUCHE, US, 60.05, -148.066667, , 
seaport, SEWARD, US, 60.1, -149.433333, , 
seaport, PORT GRAHAM, US, 59.35, -151.816667, , 
seaport, SELDOVIA, US, 59.433333, -151.733333, , 
seaport, HOMER, US, 59.6, -151.416667, , 
seaport, COAL POINT, US, 59.6, -151.416667, , 
seaport, NINILCHIK, US, 60.05, -151.683333, , 
seaport, KENAI, US, 60.55, -151.266667, , 
seaport, NIKISKI, US, 60.683333, -151.4, , 
seaport, ANCHORAGE, US, 61.216667, -149.9, , 
seaport, DRIFT RIVER, US, 60.55, -152.133333, , 
seaport, SNUG HARBOR, US, 60.1, -152.583333, , 
seaport, OUZINKIE, US, 57.916667, -152.5, , 
seaport, KODIAK, US, 57.783333, -152.4, , 
seaport, WOMENS BAY, US, 57.716667, -152.516667, , 
seaport, PORT HOBRON, US, 57.166667, -153.166667, , 
seaport, MCCORD, US, 57.15, -153.2, , 
seaport, THREE SAINTS BAY, US, 57.116667, -153.5, , 
seaport, TRAP POINT, US, 57.0, -154.15, , 
seaport, LAZY BAY, US, 56.9, -154.25, , 
seaport, KARLUK, US, 57.566667, -154.45, , 
seaport, UYAK, US, 57.633333, -154.0, , 
seaport, LARSEN BAY, US, 57.533333, -153.983333, , 
seaport, PORT OBRIEN, US, 57.733333, -153.316667, , 
seaport, DRY SPRUCE BAY, US, 57.933333, -153.033333, , 
seaport, PORT VITA, US, 58.066667, -153.066667, , 
seaport, BEAR ISLAND, US, 58.45, -152.683333, , 
seaport, HOGG ISLAND, US, 58.466667, -152.683333, , 
seaport, PORT WILLIAM, US, 58.483333, -152.583333, , 
seaport, KANATAK, US, 57.566667, -156.033333, , 
seaport, CHIGNIK, US, 56.3, -158.4, , 
seaport, IVANOF BAY, US, 55.8, -159.466667, , 
seaport, SAND POINT, US, 55.333333, -160.533333, , 
seaport, BARALOF BAY, US, 55.233333, -160.533333, , 
seaport, BELKOFSKI, US, 55.083333, -162.033333, , 
seaport, KING COVE, US, 55.05, -162.316667, , 
seaport, COLD BAY, US, 55.2, -162.7, , 
seaport, SANAK, US, 54.483333, -162.816667, , 
seaport, CANNERY BAY, US, 53.7, -166.75, , 
seaport, MAKUSHIN, US, 53.766667, -166.983333, , 
seaport, DUTCH HARBOR, US, 53.9, -166.533333, , 
seaport, UNALASKA, US, 53.866667, -166.533333, , 
seaport, PALISADES POINT, US, 52.233333, -174.166667, , 
seaport, CONSTANTINE HARBOR, US, 51.4, 179.3, , 
seaport, KISKA, US, 51.966667, 177.55, , 
seaport, ALCAN HARBOR, US, 52.733333, 174.066667, , 
seaport, WHITTIER, US, 60.833333, -148.666667, , 
seaport, CRAB BAY, US, 60.066667, -148.0, , 
seaport, PORT ASHTON, US, 60.066667, -148.05, , 
seaport, SKOOT COVE, US, 52.716667, 174.066667, , 
seaport, KETCHIKAN, US, 55.333333, -131.65, , 
seaport, WARD COVE, US, 55.4, -131.733333, , 
seaport, KNUDSON COVE, US, 55.466667, -131.8, , 
seaport, LORING, US, 55.6, -131.633333, , 
seaport, YES BAY, US, 55.916667, -131.8, , 
seaport, UNION BAY, US, 55.766667, -132.216667, , 
seaport, BURNETT INLET, US, 56.066667, -132.466667, , 
seaport, WRANGELL, US, 56.466667, -132.383333, , 
seaport, KASAAN, US, 55.533333, -132.4, , 
seaport, ROSE INLET, US, 54.95, -132.966667, , 
seaport, HYDABURG, US, 55.2, -132.833333, , 
seaport, WATERFALL, US, 55.3, -133.233333, , 
seaport, CRAIG, US, 55.466667, -133.15, , 
seaport, KLAWOCK, US, 55.55, -133.1, , 
seaport, STEAMBOAT BAY, US, 55.533333, -133.633333, , 
seaport, FISHERMANS HARBOR, US, 55.966667, -133.8, , 
seaport, PETERSBURG, US, 56.816667, -132.95, , 
seaport, KAKE, US, 56.966667, -133.933333, , 
seaport, WASHINGTON BAY, US, 56.733333, -134.35, , 
seaport, BAY OF PILLARS, US, 56.6, -134.233333, , 
seaport, BIG PORT WALTER, US, 56.383333, -134.733333, , 
seaport, LITTLE PORT WALTER, US, 56.383333, -134.633333, , 
seaport, PORT ARMSTRONG, US, 56.3, -134.666667, , 
seaport, PORT CONCLUSION, US, 56.25, -134.683333, , 
seaport, PORT ALEXANDER, US, 56.25, -134.65, , 
seaport, SITKA, US, 57.05, -135.333333, , 
seaport, KIMSHAN COVE, US, 57.683333, -136.116667, , 
seaport, PELICAN, US, 57.966667, -136.233333, , 
seaport, ELFIN COVE, US, 58.2, -136.35, , 
seaport, HOONAH, US, 58.116667, -135.45, , 
seaport, TENAKEE SPRINGS, US, 57.783333, -135.2, , 
seaport, CHATHAM, US, 57.516667, -134.933333, , 
seaport, TODD, US, 57.466667, -135.05, , 
seaport, HOOD BAY, US, 57.4, -134.5, , 
seaport, HAWK INLET, US, 58.116667, -134.75, , 
seaport, FUNTER, US, 58.25, -134.9, , 
seaport, DUPONT, US, 58.233333, -134.266667, , 
seaport, JUNEAU, US, 58.3, -134.416667, , 
seaport, HAINES, US, 59.233333, -135.433333, , 
seaport, TANANI POINT, US, 59.283333, -135.45, , 
seaport, SKAGWAY, US, 59.45, -135.333333, , 
seaport, LETNIKOF COVE, US, 59.183333, -135.4, , 
seaport, EXCURSION INLET, US, 58.416667, -135.45, , 
seaport, YAKUTAT, US, 59.55, -139.733333, , 
seaport, KATALLA, US, 60.2, -144.533333, , 
seaport, CORDOVA, US, 60.55, -145.766667, , 
seaport, SHEPARD POINT, US, 60.633333, -145.666667, , 
seaport, SWANPORT, US, 61.083333, -146.4, , 
seaport, METLAKATLA, US, 55.133333, -131.566667, , 
seaport, GEORGE INLET, US, 55.383333, -131.466667, , 
seaport, VALDEZ, US, 61.116667, -146.25, , 
seaport, BAMBERTON, CA, 48.55, -123.516667, , 
seaport, VICTORIA HARBOR, CA, 48.433333, -123.383333, , 
seaport, ESQUIMALT HARBOR, CA, 48.433333, -123.433333, , 
seaport, PORT SAN JUAN, CA, 48.55, -124.433333, , 
seaport, PORT ALBERNI, CA, 49.233333, -124.816667, , 
seaport, UCLUELET, CA, 48.95, -125.55, , 
seaport, CLAYOQUOT, CA, 49.15, -125.916667, , 
seaport, AHOUSAT, CA, 49.283333, -126.066667, , 
seaport, TAHSIS, CA, 49.916667, -126.666667, , 
seaport, BERGH COVE, CA, 50.533333, -127.616667, , 
seaport, PORT ALICE, CA, 50.383333, -127.45, , 
seaport, COAL HARBOR, CA, 50.6, -127.583333, , 
seaport, PORT HARDY, CA, 50.716667, -127.483333, , 
seaport, SOINTULA, CA, 50.633333, -127.016667, , 
seaport, ALERT BAY, CA, 50.583333, -126.933333, , 
seaport, PORT MCNEILL, CA, 50.583333, -127.083333, , 
seaport, BELLA COOLA, CA, 52.383333, -126.766667, , 
seaport, BELLA BELLA, CA, 52.166667, -128.15, , 
seaport, KLEMTU, CA, 52.6, -128.516667, , 
seaport, BUTEDALE, CA, 53.166667, -128.683333, , 
seaport, KEMANO BAY, CA, 53.483333, -128.133333, , 
seaport, KITIMAT, CA, 54.0, -128.683333, , 
seaport, PORPOISE HARBOR, CA, 54.216667, -130.283333, , 
seaport, PRINCE RUPERT, CA, 54.316667, -130.333333, , 
seaport, PORT SIMPSON, CA, 54.566667, -130.433333, , 
seaport, STEWART, CA, 55.933333, -130.0, , 
seaport, MASSET HARBOR, CA, 54.016667, -132.15, , 
seaport, PORT CLEMENTS, CA, 53.683333, -132.183333, , 
seaport, QUEEN CHARLOTTE, CA, 53.25, -132.083333, , 
seaport, ALLIFORD BAY, CA, 53.216667, -131.983333, , 
seaport, HYDER, US, 55.916667, -130.0, , 
seaport, HIDDEN INLET, US, 54.95, -130.333333, , 
seaport, LYALL HARBOR, CA, 48.8, -123.2, , 
seaport, HOPE BAY, CA, 48.8, -123.283333, , 
seaport, SIDNEY, CA, 48.65, -123.383333, , 
seaport, ROCHE  HARBOR, US, 48.616667, -123.166667, , 
seaport, ORCAS, US, 48.6, -122.933333, , 
seaport, ANACORTES, US, 48.516667, -122.616667, , 
seaport, BELLINGHAM, US, 48.75, -122.5, , 
seaport, CHERRY POINT, US, 48.866667, -122.75, , 
seaport, SEMIAHMOO, US, 48.983333, -122.766667, , 
seaport, BLAINE, US, 49.0, -122.75, , 
seaport, STEVESTON, CA, 49.133333, -123.183333, , 
seaport, NEW WESTMINSTER, CA, 49.2, -122.916667, , 
seaport, FRASER MILLS, CA, 49.216667, -122.866667, , 
seaport, PORT COQUITLAM, CA, 49.266667, -122.783333, , 
seaport, MISSION CITY, CA, 49.116667, -122.25, , 
seaport, VANCOUVER, CA, 49.283333, -123.116667, , 
seaport, PORT MOODY, CA, 49.283333, -122.883333, , 
seaport, SQUAMISH, CA, 49.683333, -123.15, , 
seaport, PORT MELLON, CA, 49.516667, -123.483333, , 
seaport, WESTVIEW, CA, 49.833333, -124.516667, , 
seaport, POWELL RIVER, CA, 49.866667, -124.533333, , 
seaport, DUNCAN BAY, CA, 50.066667, -125.283333, , 
seaport, CAMPBELL RIVER, CA, 50.016667, -124.233333, , 
seaport, COMOX HARBOR, CA, 49.666667, -124.916667, , 
seaport, NANOOSE HARBOR, CA, 49.266667, -124.15, , 
seaport, NANAIMO, CA, 49.166667, -123.933333, , 
seaport, HARMAC, CA, 49.133333, -123.85, , 
seaport, CHEMAINUS, CA, 48.933333, -123.716667, , 
seaport, CROFTON, CA, 48.866667, -123.633333, , 
seaport, COWICHAN BAY, CA, 48.75, -123.616667, , 
seaport, GANGES, CA, 48.85, -123.483333, , 
seaport, FRIDAY HARBOR, US, 48.533333, -123.016667, , 
seaport, WESTPORT, US, 46.133333, -123.383333, , 
seaport, RAINIER, US, 46.083333, -122.933333, , 
seaport, LONGVIEW, US, 46.133333, -122.933333, , 
seaport, KALAMA, US, 46.016667, -122.85, , 
seaport, ST HELENS, US, 45.866667, -122.8, , 
seaport, PORTLAND, US, 45.516667, -122.666667, , 
seaport, VANCOUVER, US, 45.633333, -122.683333, , 
seaport, CAMAS, US, 45.583333, -122.4, , 
seaport, WASHOUGAL, US, 45.583333, -122.35, , 
seaport, THE DALLES, US, 45.6, -121.183333, , 
seaport, NAHCOTTA, US, 46.5, -124.033333, , 
seaport, SOUTH BEND, US, 46.666667, -123.783333, , 
seaport, RAYMOND, US, 46.683333, -123.733333, , 
seaport, WILLAPA HARBOR, US, 46.683333, -123.75, , 
seaport, WESTHAVEN COVE, US, 46.916667, -124.116667, , 
seaport, BAY CITY, US, 46.866667, -124.066667, , 
seaport, ABERDEEN, US, 46.983333, -123.816667, , 
seaport, HOQUIAM, US, 46.966667, -123.9, , 
seaport, LA PUSH, US, 47.9, -124.633333, , 
seaport, NEAH BAY, US, 48.366667, -124.616667, , 
seaport, SEKIU, US, 48.266667, -124.3, , 
seaport, PORT ANGELES, US, 48.116667, -123.433333, , 
seaport, PORT TOWNSEND, US, 48.116667, -122.75, , 
seaport, GLEN COVE, US, 48.083333, -122.783333, , 
seaport, HOODSPORT, US, 47.416667, -123.133333, , 
seaport, PORT GAMBLE, US, 47.85, -122.583333, , 
seaport, POULSBO, US, 47.733333, -122.65, , 
seaport, KEYPORT, US, 47.7, -122.616667, , 
seaport, WINSLOW, US, 47.616667, -122.516667, , 
seaport, CREOSOTE, US, 47.616667, -122.5, , 
seaport, FORT WARD, US, 47.583333, -122.516667, , 
seaport, EAST BREMERTON, US, 47.566667, -122.616667, , 
seaport, SILVERDALE, US, 47.65, -122.7, , 
seaport, BREMERTON, US, 47.566667, -122.65, , 
seaport, PORT ORCHARD, US, 47.533333, -122.633333, , 
seaport, QUARTERMASTER HARBOR, US, 47.383333, -122.466667, , 
seaport, SHELTON, US, 47.216667, -123.1, , 
seaport, OLYMPIA, US, 47.05, -122.9, , 
seaport, NISQUALLY HEAD, US, 47.116667, -122.75, , 
seaport, TACOMA, US, 47.283333, -122.416667, , 
seaport, SEATTLE, US, 47.6, -122.333333, , 
seaport, POINT WELLS, US, 47.783333, -122.4, , 
seaport, EDWARDS POINT, US, 47.8, -122.4, , 
seaport, MUKILTEO, US, 47.95, -122.3, , 
seaport, EVERETT, US, 48.0, -122.216667, , 
seaport, COUPEVILLE, US, 48.233333, -122.683333, , 
seaport, RICHARDSON, US, 48.45, -122.9, , 
seaport, WARRENTON, US, 46.166667, -123.916667, , 
seaport, ASTORIA, US, 46.2, -123.833333, , 
seaport, TONGUE POINT, US, 46.2, -123.75, , 
seaport, SAN FRANCISCO, US, 37.816667, -122.416667, , 
seaport, YERBABUENA ISLAND, US, 37.816667, -122.366667, , 
seaport, REDWOOD CITY, US, 37.533333, -122.2, , 
seaport, ALAMEDA, US, 37.783333, -122.266667, , 
seaport, OAKLAND, US, 37.816667, -122.333333, , 
seaport, BERKELEY, US, 37.866667, -122.3, , 
seaport, POINT RICHMOND, US, 37.916667, -122.366667, , 
seaport, POINT SAN PABLO, US, 37.966667, -122.433333, , 
seaport, SAUSALITO, US, 37.85, -122.483333, , 
seaport, PINOLE POINT, US, 38.016667, -122.366667, , 
seaport, OLEUM, US, 38.05, -122.266667, , 
seaport, MARE ISLAND, US, 38.1, -122.266667, , 
seaport, SOUTH VALLEJO, US, 38.083333, -122.25, , 
seaport, CROCKETT, US, 38.05, -122.216667, , 
seaport, PORT COSTA, US, 38.05, -122.183333, , 
seaport, BENICIA, US, 38.05, -122.15, , 
seaport, MARTINEZ, US, 38.033333, -122.133333, , 
seaport, PITTSBURG, US, 38.033333, -121.883333, , 
seaport, ANTIOCH, US, 38.016667, -121.8, , 
seaport, STOCKTON, US, 37.95, -121.3, , 
seaport, RIO VISTA, US, 38.15, -121.7, , 
seaport, ISLETON, US, 38.166667, -121.6, , 
seaport, WALNUT GROVE, US, 38.233333, -121.516667, , 
seaport, COURTLAND, US, 38.333333, -121.566667, , 
seaport, SACRAMENTO, US, 38.583333, -121.5, , 
seaport, BODEGA BAY, US, 38.333333, -123.05, , 
seaport, FORT BRAGG, US, 39.45, -123.816667, , 
seaport, FIELDS LANDING, US, 40.716667, -124.216667, , 
seaport, EUREKA, US, 40.8, -124.183333, , 
seaport, SAMOA, US, 40.816667, -124.183333, , 
seaport, CRESCENT CITY, US, 41.75, -124.2, , 
seaport, PORT ORFORD, US, 42.733333, -124.5, , 
seaport, BANDON, US, 43.116667, -124.416667, , 
seaport, PROSPER, US, 43.15, -124.366667, , 
seaport, EMPIRE, US, 43.4, -124.283333, , 
seaport, NORTH BEND, US, 43.4, -124.216667, , 
seaport, COOS BAY, US, 43.366667, -124.216667, , 
seaport, WINCHESTER BAY, US, 43.683333, -124.183333, , 
seaport, GARDINER, US, 43.716667, -124.1, , 
seaport, REEDSPORT, US, 43.7, -124.1, , 
seaport, FLORENCE, US, 43.966667, -124.116667, , 
seaport, GLENADA, US, 43.966667, -124.116667, , 
seaport, CUSHMAN, US, 43.983333, -124.066667, , 
seaport, WALDPORT, US, 44.433333, -124.066667, , 
seaport, NEWPORT, US, 44.633333, -124.05, , 
seaport, TOLEDO, US, 44.616667, -123.933333, , 
seaport, DEPOE BAY, US, 44.8, -124.066667, , 
seaport, ILWACO, US, 46.3, -124.05, , 
seaport, PRINCETOWN, US, 37.5, -122.483333, , 
seaport, PUERTO VALLARTA, MX, 20.616667, -105.266667, , 
seaport, MAZATLAN, MX, 23.2, -106.416667, , 
seaport, TOPOLOBAMPO, MX, 25.6, -109.066667, , 
seaport, GUAYMAS, MX, 27.916667, -110.916667, , 
seaport, SANTA ROSALIA, MX, 27.333333, -112.283333, , 
seaport, ISLA SAN MARCOS, MX, 27.183333, -112.1, , 
seaport, SAN JUAN DE LA COSTA, MX, 24.4, -110.7, , 
seaport, LA PAZ, MX, 24.166667, -110.316667, , 
seaport, ENSENADA, MX, 31.866667, -116.633333, , 
seaport, ROSARITO, MX, 32.366667, -117.1, , 
seaport, SAN DIEGO, US, 32.716667, -117.183333, , 
seaport, WILSON COVE, US, 33.0, -118.55, , 
seaport, ISTHMUS COVE, US, 33.45, -118.5, , 
seaport, AVALON, US, 33.35, -118.316667, , 
seaport, NEWPORT BEACH, US, 33.616667, -117.9, , 
seaport, LONG BEACH, US, 33.766667, -118.183333, , 
seaport, LOS ANGELES, US, 33.75, -118.25, , 
seaport, EL SEGUNDO, US, 33.916667, -118.433333, , 
seaport, PORT HUENEME, US, 34.15, -119.2, , 
seaport, PRISONERS, US, 34.016667, -119.683333, , 
seaport, VENTURA, US, 34.283333, -119.283333, , 
seaport, CARPINTERIA, US, 34.383333, -119.516667, , 
seaport, SANTA BARBARA, US, 34.416667, -119.683333, , 
seaport, ELLWOOD, US, 34.433333, -119.916667, , 
seaport, GAVIOTA, US, 34.466667, -120.2, , 
seaport, PISMO BEACH, US, 35.133333, -120.65, , 
seaport, PORT SAN LUIS, US, 35.166667, -120.75, , 
seaport, MORRO BAY, US, 35.366667, -120.85, , 
seaport, MONTEREY, US, 36.616667, -121.883333, , 
seaport, MOSS LANDING, US, 36.8, -121.783333, , 
seaport, SANTA CRUZ, US, 36.966667, -122.016667, , 
seaport, DAVENPORT, US, 37.016667, -122.2, , 
seaport, ACAPULCO, MX, 16.85, -99.933333, , 
seaport, LAZARO CARDENAS, MX, 17.933333, -102.166667, , 
seaport, MANZANILLO, MX, 19.05, -104.316667, , 
seaport, CALETA LOBITOS, PE, -4.45, -81.283333, , 
seaport, PUERTO CABO BLANCO, PE, -4.25, -81.233333, , 
seaport, PUERTO BOLIVAR, EC, -3.266667, -80.0, , 
seaport, PUERTO MARITIMO DE GUAYAQUIL, EC, -2.283333, -79.9, , 
seaport, LA LIBERTAD, EC, -2.216667, -80.916667, , 
seaport, MANTA, EC, -0.95, -80.716667, , 
seaport, ESMERALDAS, EC, 1.0, -79.65, , 
seaport, TUMACO, CO, 1.816667, -78.75, , 
seaport, BUENAVENTURA, CO, 3.883333, -77.066667, , 
seaport, BALBOA, PA, 8.95, -79.566667, , 
seaport, PEDREGAL, PA, 8.35, -82.433333, , 
seaport, PUERTO ARMUELLES, PA, 8.266667, -82.85, , 
seaport, GOLFITO, CR, 8.633333, -83.166667, , 
seaport, PUERTO QUEPOS, CR, 9.433333, -84.166667, , 
seaport, PUERTO CALDERA, CR, 9.916667, -84.716667, , 
seaport, PUNTARENAS, CR, 9.983333, -84.833333, , 
seaport, PUERTO SANDINO, NI, 12.183333, -86.766667, , 
